{
"type": "FeatureCollection",
"name": "beijing",
"crs": { "type": "name", "properties": { "name": "urn:ogc:def:crs:OGC:1.3:CRS84" } },
"features": [
{ "type": "Feature", "properties": { "station_num": "1", "line_name": "地铁1号线八通线(环球度假区--玉泉路)", "station_name": "环球度假区", "status": "运营中" }, "geometry": { "type": "Point", "coordinates": [ 116.67315816374618, 39.848010030440882 ] } },
{ "type": "Feature", "properties": { "station_num": "2", "line_name": "地铁1号线八通线(环球度假区--玉泉路)", "station_name": "花庄", "status": "运营中" }, "geometry": { "type": "Point", "coordinates": [ 116.689508386913545, 39.855549760227561 ] } },
{ "type": "Feature", "properties": { "station_num": "3", "line_name": "地铁1号线八通线(环球度假区--玉泉路)", "station_name": "土桥", "status": "运营中" }, "geometry": { "type": "Point", "coordinates": [ 116.680385071410115, 39.870769190712977 ] } },
{ "type": "Feature", "properties": { "station_num": "4", "line_name": "地铁1号线八通线(环球度假区--玉泉路)", "station_name": "临河里", "status": "运营中" }, "geometry": { "type": "Point", "coordinates": [ 116.672867730720299, 39.874353126751664 ] } },
{ "type": "Feature", "properties": { "station_num": "5", "line_name": "地铁1号线八通线(环球度假区--玉泉路)", "station_name": "梨园", "status": "运营中" }, "geometry": { "type": "Point", "coordinates": [ 116.662804394889193, 39.882553041440431 ] } },
{ "type": "Feature", "properties": { "station_num": "6", "line_name": "地铁1号线八通线(环球度假区--玉泉路)", "station_name": "九棵树", "status": "运营中" }, "geometry": { "type": "Point", "coordinates": [ 116.651647776529288, 39.889174815748888 ] } },
{ "type": "Feature", "properties": { "station_num": "7", "line_name": "地铁1号线八通线(环球度假区--玉泉路)", "station_name": "果园", "status": "运营中" }, "geometry": { "type": "Point", "coordinates": [ 116.640763907505544, 39.892244898432971 ] } },
{ "type": "Feature", "properties": { "station_num": "8", "line_name": "地铁1号线八通线(环球度假区--玉泉路)", "station_name": "通州北苑", "status": "运营中" }, "geometry": { "type": "Point", "coordinates": [ 116.63141560372523, 39.90279411260547 ] } },
{ "type": "Feature", "properties": { "station_num": "9", "line_name": "地铁1号线八通线(环球度假区--玉泉路)", "station_name": "八里桥", "status": "运营中" }, "geometry": { "type": "Point", "coordinates": [ 116.612855144739001, 39.905072916720187 ] } },
{ "type": "Feature", "properties": { "station_num": "10", "line_name": "地铁1号线八通线(环球度假区--玉泉路)", "station_name": "管庄", "status": "运营中" }, "geometry": { "type": "Point", "coordinates": [ 116.593216105669384, 39.908051195354425 ] } },
{ "type": "Feature", "properties": { "station_num": "11", "line_name": "地铁1号线八通线(环球度假区--玉泉路)", "station_name": "双桥", "status": "运营中" }, "geometry": { "type": "Point", "coordinates": [ 116.570960687485581, 39.909093651814501 ] } },
{ "type": "Feature", "properties": { "station_num": "12", "line_name": "地铁1号线八通线(环球度假区--玉泉路)", "station_name": "传媒大学", "status": "运营中" }, "geometry": { "type": "Point", "coordinates": [ 116.548809782976647, 39.908135703517885 ] } },
{ "type": "Feature", "properties": { "station_num": "13", "line_name": "地铁1号线八通线(环球度假区--玉泉路)", "station_name": "高碑店", "status": "运营中" }, "geometry": { "type": "Point", "coordinates": [ 116.525527482813715, 39.908316447809113 ] } },
{ "type": "Feature", "properties": { "station_num": "14", "line_name": "地铁1号线八通线(环球度假区--玉泉路)", "station_name": "四惠东", "status": "运营中" }, "geometry": { "type": "Point", "coordinates": [ 116.509716041799066, 39.907319999702224 ] } },
{ "type": "Feature", "properties": { "station_num": "15", "line_name": "地铁1号线八通线(环球度假区--玉泉路)", "station_name": "四惠", "status": "运营中" }, "geometry": { "type": "Point", "coordinates": [ 116.489431967127743, 39.907514004594866 ] } },
{ "type": "Feature", "properties": { "station_num": "16", "line_name": "地铁1号线八通线(环球度假区--玉泉路)", "station_name": "大望路", "status": "运营中" }, "geometry": { "type": "Point", "coordinates": [ 116.469686168375205, 39.906995039414554 ] } },
{ "type": "Feature", "properties": { "station_num": "17", "line_name": "地铁1号线八通线(环球度假区--玉泉路)", "station_name": "国贸", "status": "运营中" }, "geometry": { "type": "Point", "coordinates": [ 116.453557018051072, 39.907087769397215 ] } },
{ "type": "Feature", "properties": { "station_num": "18", "line_name": "地铁1号线八通线(环球度假区--玉泉路)", "station_name": "永安里", "status": "运营中" }, "geometry": { "type": "Point", "coordinates": [ 116.444153318539151, 39.907118163226905 ] } },
{ "type": "Feature", "properties": { "station_num": "19", "line_name": "地铁1号线八通线(环球度假区--玉泉路)", "station_name": "建国门", "status": "运营中" }, "geometry": { "type": "Point", "coordinates": [ 116.428435697210858, 39.907173909258141 ] } },
{ "type": "Feature", "properties": { "station_num": "20", "line_name": "地铁1号线八通线(环球度假区--玉泉路)", "station_name": "东单", "status": "运营中" }, "geometry": { "type": "Point", "coordinates": [ 116.414093490492562, 39.906919998873242 ] } },
{ "type": "Feature", "properties": { "station_num": "21", "line_name": "地铁1号线八通线(环球度假区--玉泉路)", "station_name": "王府井", "status": "运营中" }, "geometry": { "type": "Point", "coordinates": [ 116.405330207311891, 39.906666770557123 ] } },
{ "type": "Feature", "properties": { "station_num": "22", "line_name": "地铁1号线八通线(环球度假区--玉泉路)", "station_name": "天安门东", "status": "运营中" }, "geometry": { "type": "Point", "coordinates": [ 116.394972190215924, 39.906376022542119 ] } },
{ "type": "Feature", "properties": { "station_num": "23", "line_name": "地铁1号线八通线(环球度假区--玉泉路)", "station_name": "天安门西", "status": "运营中" }, "geometry": { "type": "Point", "coordinates": [ 116.385036833498503, 39.906070735600998 ] } },
{ "type": "Feature", "properties": { "station_num": "24", "line_name": "地铁1号线八通线(环球度假区--玉泉路)", "station_name": "西单", "status": "运营中" }, "geometry": { "type": "Point", "coordinates": [ 116.369831504134282, 39.905802549943985 ] } },
{ "type": "Feature", "properties": { "station_num": "25", "line_name": "地铁1号线八通线(环球度假区--玉泉路)", "station_name": "复兴门", "status": "运营中" }, "geometry": { "type": "Point", "coordinates": [ 116.351594603983102, 39.905808897306102 ] } },
{ "type": "Feature", "properties": { "station_num": "26", "line_name": "地铁1号线八通线(环球度假区--玉泉路)", "station_name": "南礼士路", "status": "运营中" }, "geometry": { "type": "Point", "coordinates": [ 116.346394829120214, 39.90587740202001 ] } },
{ "type": "Feature", "properties": { "station_num": "27", "line_name": "地铁1号线八通线(环球度假区--玉泉路)", "station_name": "木樨地", "status": "运营中" }, "geometry": { "type": "Point", "coordinates": [ 116.331427278197722, 39.906049385277619 ] } },
{ "type": "Feature", "properties": { "station_num": "28", "line_name": "地铁1号线八通线(环球度假区--玉泉路)", "station_name": "军事博物馆", "status": "运营中" }, "geometry": { "type": "Point", "coordinates": [ 116.317261743899735, 39.906119513328804 ] } },
{ "type": "Feature", "properties": { "station_num": "29", "line_name": "地铁1号线八通线(环球度假区--玉泉路)", "station_name": "公主坟", "status": "运营中" }, "geometry": { "type": "Point", "coordinates": [ 116.30419563307764, 39.906199928571787 ] } },
{ "type": "Feature", "properties": { "station_num": "30", "line_name": "地铁1号线八通线(环球度假区--玉泉路)", "station_name": "万寿路", "status": "运营中" }, "geometry": { "type": "Point", "coordinates": [ 116.288700522739603, 39.906221762771871 ] } },
{ "type": "Feature", "properties": { "station_num": "31", "line_name": "地铁1号线八通线(环球度假区--玉泉路)", "station_name": "五棵松", "status": "运营中" }, "geometry": { "type": "Point", "coordinates": [ 116.267949974012268, 39.906229083268769 ] } },
{ "type": "Feature", "properties": { "station_num": "32", "line_name": "地铁1号线八通线(环球度假区--玉泉路)", "station_name": "玉泉路", "status": "运营中" }, "geometry": { "type": "Point", "coordinates": [ 116.24685917902724, 39.906217110665949 ] } },
{ "type": "Feature", "properties": { "station_num": "33", "line_name": "地铁1号线八通线(环球度假区--玉泉路)", "station_name": "八宝山", "status": "运营中" }, "geometry": { "type": "Point", "coordinates": [ 116.229868684085574, 39.906197913281616 ] } },
{ "type": "Feature", "properties": { "station_num": "34", "line_name": "地铁1号线八通线(环球度假区--玉泉路)", "station_name": "八角游乐园", "status": "运营中" }, "geometry": { "type": "Point", "coordinates": [ 116.206784941353646, 39.906202185368905 ] } },
{ "type": "Feature", "properties": { "station_num": "35", "line_name": "地铁1号线八通线(环球度假区--玉泉路)", "station_name": "古城", "status": "运营中" }, "geometry": { "type": "Point", "coordinates": [ 116.184210997177189, 39.906175762583047 ] } },
{ "type": "Feature", "properties": { "station_num": "36", "line_name": "地铁1号线八通线(环球度假区--玉泉路)", "station_name": "苹果园", "status": "运营中" }, "geometry": { "type": "Point", "coordinates": [ 116.171648331382357, 39.924991281151314 ] } },
{ "type": "Feature", "properties": { "station_num": "37", "line_name": "地铁1号线八通线(环球度假区--玉泉路)", "station_name": "福寿岭", "status": "运营中" }, "geometry": { "type": "Point", "coordinates": [ 116.164974800232841, 39.938740286545652 ] } },
{ "type": "Feature", "properties": { "station_num": "1", "line_name": "地铁1号线八通线(古城--环球度假区)", "station_name": "福寿岭", "status": "运营中" }, "geometry": { "type": "Point", "coordinates": [ 116.164974800232841, 39.938740286545652 ] } },
{ "type": "Feature", "properties": { "station_num": "2", "line_name": "地铁1号线八通线(古城--环球度假区)", "station_name": "苹果园", "status": "运营中" }, "geometry": { "type": "Point", "coordinates": [ 116.171648331382357, 39.924991281151314 ] } },
{ "type": "Feature", "properties": { "station_num": "3", "line_name": "地铁1号线八通线(古城--环球度假区)", "station_name": "古城", "status": "运营中" }, "geometry": { "type": "Point", "coordinates": [ 116.184210997177189, 39.906175762583047 ] } },
{ "type": "Feature", "properties": { "station_num": "4", "line_name": "地铁1号线八通线(古城--环球度假区)", "station_name": "八角游乐园", "status": "运营中" }, "geometry": { "type": "Point", "coordinates": [ 116.206784941353646, 39.906202185368905 ] } },
{ "type": "Feature", "properties": { "station_num": "5", "line_name": "地铁1号线八通线(古城--环球度假区)", "station_name": "八宝山", "status": "运营中" }, "geometry": { "type": "Point", "coordinates": [ 116.229868684085574, 39.906197913281616 ] } },
{ "type": "Feature", "properties": { "station_num": "6", "line_name": "地铁1号线八通线(古城--环球度假区)", "station_name": "玉泉路", "status": "运营中" }, "geometry": { "type": "Point", "coordinates": [ 116.24685917902724, 39.906217110665949 ] } },
{ "type": "Feature", "properties": { "station_num": "7", "line_name": "地铁1号线八通线(古城--环球度假区)", "station_name": "五棵松", "status": "运营中" }, "geometry": { "type": "Point", "coordinates": [ 116.267949974012268, 39.906229083268769 ] } },
{ "type": "Feature", "properties": { "station_num": "8", "line_name": "地铁1号线八通线(古城--环球度假区)", "station_name": "万寿路", "status": "运营中" }, "geometry": { "type": "Point", "coordinates": [ 116.288700522739603, 39.906221762771871 ] } },
{ "type": "Feature", "properties": { "station_num": "9", "line_name": "地铁1号线八通线(古城--环球度假区)", "station_name": "公主坟", "status": "运营中" }, "geometry": { "type": "Point", "coordinates": [ 116.30419563307764, 39.906199928571787 ] } },
{ "type": "Feature", "properties": { "station_num": "10", "line_name": "地铁1号线八通线(古城--环球度假区)", "station_name": "军事博物馆", "status": "运营中" }, "geometry": { "type": "Point", "coordinates": [ 116.317261743899735, 39.906119513328804 ] } },
{ "type": "Feature", "properties": { "station_num": "11", "line_name": "地铁1号线八通线(古城--环球度假区)", "station_name": "木樨地", "status": "运营中" }, "geometry": { "type": "Point", "coordinates": [ 116.331427278197722, 39.906049385277619 ] } },
{ "type": "Feature", "properties": { "station_num": "12", "line_name": "地铁1号线八通线(古城--环球度假区)", "station_name": "南礼士路", "status": "运营中" }, "geometry": { "type": "Point", "coordinates": [ 116.346394829120214, 39.90587740202001 ] } },
{ "type": "Feature", "properties": { "station_num": "13", "line_name": "地铁1号线八通线(古城--环球度假区)", "station_name": "复兴门", "status": "运营中" }, "geometry": { "type": "Point", "coordinates": [ 116.351594603983102, 39.905808897306102 ] } },
{ "type": "Feature", "properties": { "station_num": "14", "line_name": "地铁1号线八通线(古城--环球度假区)", "station_name": "西单", "status": "运营中" }, "geometry": { "type": "Point", "coordinates": [ 116.369831504134282, 39.905802549943985 ] } },
{ "type": "Feature", "properties": { "station_num": "15", "line_name": "地铁1号线八通线(古城--环球度假区)", "station_name": "天安门西", "status": "运营中" }, "geometry": { "type": "Point", "coordinates": [ 116.385036833498503, 39.906070735600998 ] } },
{ "type": "Feature", "properties": { "station_num": "16", "line_name": "地铁1号线八通线(古城--环球度假区)", "station_name": "天安门东", "status": "运营中" }, "geometry": { "type": "Point", "coordinates": [ 116.394972190215924, 39.906376022542119 ] } },
{ "type": "Feature", "properties": { "station_num": "17", "line_name": "地铁1号线八通线(古城--环球度假区)", "station_name": "王府井", "status": "运营中" }, "geometry": { "type": "Point", "coordinates": [ 116.405330207311891, 39.906666770557123 ] } },
{ "type": "Feature", "properties": { "station_num": "18", "line_name": "地铁1号线八通线(古城--环球度假区)", "station_name": "东单", "status": "运营中" }, "geometry": { "type": "Point", "coordinates": [ 116.414093490492562, 39.906919998873242 ] } },
{ "type": "Feature", "properties": { "station_num": "19", "line_name": "地铁1号线八通线(古城--环球度假区)", "station_name": "建国门", "status": "运营中" }, "geometry": { "type": "Point", "coordinates": [ 116.428435697210858, 39.907173909258141 ] } },
{ "type": "Feature", "properties": { "station_num": "20", "line_name": "地铁1号线八通线(古城--环球度假区)", "station_name": "永安里", "status": "运营中" }, "geometry": { "type": "Point", "coordinates": [ 116.444153318539151, 39.907118163226905 ] } },
{ "type": "Feature", "properties": { "station_num": "21", "line_name": "地铁1号线八通线(古城--环球度假区)", "station_name": "国贸", "status": "运营中" }, "geometry": { "type": "Point", "coordinates": [ 116.453557018051072, 39.907087769397215 ] } },
{ "type": "Feature", "properties": { "station_num": "22", "line_name": "地铁1号线八通线(古城--环球度假区)", "station_name": "大望路", "status": "运营中" }, "geometry": { "type": "Point", "coordinates": [ 116.469686168375205, 39.906995039414554 ] } },
{ "type": "Feature", "properties": { "station_num": "23", "line_name": "地铁1号线八通线(古城--环球度假区)", "station_name": "四惠", "status": "运营中" }, "geometry": { "type": "Point", "coordinates": [ 116.489431967127743, 39.907514004594866 ] } },
{ "type": "Feature", "properties": { "station_num": "24", "line_name": "地铁1号线八通线(古城--环球度假区)", "station_name": "四惠东", "status": "运营中" }, "geometry": { "type": "Point", "coordinates": [ 116.509716041799066, 39.907319999702224 ] } },
{ "type": "Feature", "properties": { "station_num": "25", "line_name": "地铁1号线八通线(古城--环球度假区)", "station_name": "高碑店", "status": "运营中" }, "geometry": { "type": "Point", "coordinates": [ 116.525527482813715, 39.908316447809113 ] } },
{ "type": "Feature", "properties": { "station_num": "26", "line_name": "地铁1号线八通线(古城--环球度假区)", "station_name": "传媒大学", "status": "运营中" }, "geometry": { "type": "Point", "coordinates": [ 116.548809782976647, 39.908135703517885 ] } },
{ "type": "Feature", "properties": { "station_num": "27", "line_name": "地铁1号线八通线(古城--环球度假区)", "station_name": "双桥", "status": "运营中" }, "geometry": { "type": "Point", "coordinates": [ 116.570960687485581, 39.909093651814501 ] } },
{ "type": "Feature", "properties": { "station_num": "28", "line_name": "地铁1号线八通线(古城--环球度假区)", "station_name": "管庄", "status": "运营中" }, "geometry": { "type": "Point", "coordinates": [ 116.593216105669384, 39.908051195354425 ] } },
{ "type": "Feature", "properties": { "station_num": "29", "line_name": "地铁1号线八通线(古城--环球度假区)", "station_name": "八里桥", "status": "运营中" }, "geometry": { "type": "Point", "coordinates": [ 116.612855144739001, 39.905072916720187 ] } },
{ "type": "Feature", "properties": { "station_num": "30", "line_name": "地铁1号线八通线(古城--环球度假区)", "station_name": "通州北苑", "status": "运营中" }, "geometry": { "type": "Point", "coordinates": [ 116.63141560372523, 39.90279411260547 ] } },
{ "type": "Feature", "properties": { "station_num": "31", "line_name": "地铁1号线八通线(古城--环球度假区)", "station_name": "果园", "status": "运营中" }, "geometry": { "type": "Point", "coordinates": [ 116.640763907505544, 39.892244898432971 ] } },
{ "type": "Feature", "properties": { "station_num": "32", "line_name": "地铁1号线八通线(古城--环球度假区)", "station_name": "九棵树", "status": "运营中" }, "geometry": { "type": "Point", "coordinates": [ 116.651647776529288, 39.889174815748888 ] } },
{ "type": "Feature", "properties": { "station_num": "33", "line_name": "地铁1号线八通线(古城--环球度假区)", "station_name": "梨园", "status": "运营中" }, "geometry": { "type": "Point", "coordinates": [ 116.662804394889193, 39.882553041440431 ] } },
{ "type": "Feature", "properties": { "station_num": "34", "line_name": "地铁1号线八通线(古城--环球度假区)", "station_name": "临河里", "status": "运营中" }, "geometry": { "type": "Point", "coordinates": [ 116.672867730720299, 39.874353126751664 ] } },
{ "type": "Feature", "properties": { "station_num": "35", "line_name": "地铁1号线八通线(古城--环球度假区)", "station_name": "土桥", "status": "运营中" }, "geometry": { "type": "Point", "coordinates": [ 116.680385071410115, 39.870769190712977 ] } },
{ "type": "Feature", "properties": { "station_num": "36", "line_name": "地铁1号线八通线(古城--环球度假区)", "station_name": "花庄", "status": "运营中" }, "geometry": { "type": "Point", "coordinates": [ 116.689508386913545, 39.855549760227561 ] } },
{ "type": "Feature", "properties": { "station_num": "37", "line_name": "地铁1号线八通线(古城--环球度假区)", "station_name": "环球度假区", "status": "运营中" }, "geometry": { "type": "Point", "coordinates": [ 116.67315816374618, 39.848010030440882 ] } },
{ "type": "Feature", "properties": { "station_num": "1", "line_name": "地铁10号线内环(巴沟--巴沟)", "station_name": "巴沟", "status": "运营中" }, "geometry": { "type": "Point", "coordinates": [ 116.287286531590453, 39.973161152348524 ] } },
{ "type": "Feature", "properties": { "station_num": "2", "line_name": "地铁10号线内环(巴沟--巴沟)", "station_name": "苏州街", "status": "运营中" }, "geometry": { "type": "Point", "coordinates": [ 116.300237282065495, 39.974368173154211 ] } },
{ "type": "Feature", "properties": { "station_num": "3", "line_name": "地铁10号线内环(巴沟--巴沟)", "station_name": "海淀黄庄", "status": "运营中" }, "geometry": { "type": "Point", "coordinates": [ 116.311445238162889, 39.974701776545118 ] } },
{ "type": "Feature", "properties": { "station_num": "4", "line_name": "地铁10号线内环(巴沟--巴沟)", "station_name": "知春里", "status": "运营中" }, "geometry": { "type": "Point", "coordinates": [ 116.322713532675181, 39.975021235581195 ] } },
{ "type": "Feature", "properties": { "station_num": "5", "line_name": "地铁10号线内环(巴沟--巴沟)", "station_name": "知春路", "status": "运营中" }, "geometry": { "type": "Point", "coordinates": [ 116.33519903154432, 39.975133512573194 ] } },
{ "type": "Feature", "properties": { "station_num": "6", "line_name": "地铁10号线内环(巴沟--巴沟)", "station_name": "西土城", "status": "运营中" }, "geometry": { "type": "Point", "coordinates": [ 116.348113581040607, 39.97500971723079 ] } },
{ "type": "Feature", "properties": { "station_num": "7", "line_name": "地铁10号线内环(巴沟--巴沟)", "station_name": "牡丹园", "status": "运营中" }, "geometry": { "type": "Point", "coordinates": [ 116.363391568360797, 39.975003220224281 ] } },
{ "type": "Feature", "properties": { "station_num": "8", "line_name": "地铁10号线内环(巴沟--巴沟)", "station_name": "健德门", "status": "运营中" }, "geometry": { "type": "Point", "coordinates": [ 116.375113679327612, 39.975147652324388 ] } },
{ "type": "Feature", "properties": { "station_num": "9", "line_name": "地铁10号线内环(巴沟--巴沟)", "station_name": "北土城", "status": "运营中" }, "geometry": { "type": "Point", "coordinates": [ 116.387941654751316, 39.975547700677851 ] } },
{ "type": "Feature", "properties": { "station_num": "10", "line_name": "地铁10号线内环(巴沟--巴沟)", "station_name": "安贞门", "status": "运营中" }, "geometry": { "type": "Point", "coordinates": [ 116.399702001668672, 39.975598436130497 ] } },
{ "type": "Feature", "properties": { "station_num": "11", "line_name": "地铁10号线内环(巴沟--巴沟)", "station_name": "惠新西街南口", "status": "运营中" }, "geometry": { "type": "Point", "coordinates": [ 116.411291906866666, 39.975719172202403 ] } },
{ "type": "Feature", "properties": { "station_num": "12", "line_name": "地铁10号线内环(巴沟--巴沟)", "station_name": "芍药居", "status": "运营中" }, "geometry": { "type": "Point", "coordinates": [ 116.431300569267307, 39.975710386111096 ] } },
{ "type": "Feature", "properties": { "station_num": "13", "line_name": "地铁10号线内环(巴沟--巴沟)", "station_name": "太阳宫", "status": "运营中" }, "geometry": { "type": "Point", "coordinates": [ 116.441276786692583, 39.971315883399399 ] } },
{ "type": "Feature", "properties": { "station_num": "14", "line_name": "地铁10号线内环(巴沟--巴沟)", "station_name": "三元桥", "status": "运营中" }, "geometry": { "type": "Point", "coordinates": [ 116.450987769826426, 39.959405739487572 ] } },
{ "type": "Feature", "properties": { "station_num": "15", "line_name": "地铁10号线内环(巴沟--巴沟)", "station_name": "亮马桥", "status": "运营中" }, "geometry": { "type": "Point", "coordinates": [ 116.456008395451406, 39.94805193227144 ] } },
{ "type": "Feature", "properties": { "station_num": "16", "line_name": "地铁10号线内环(巴沟--巴沟)", "station_name": "农业展览馆", "status": "运营中" }, "geometry": { "type": "Point", "coordinates": [ 116.456379577825942, 39.939933150371075 ] } },
{ "type": "Feature", "properties": { "station_num": "17", "line_name": "地铁10号线内环(巴沟--巴沟)", "station_name": "团结湖", "status": "运营中" }, "geometry": { "type": "Point", "coordinates": [ 116.455659277313558, 39.932417709965399 ] } },
{ "type": "Feature", "properties": { "station_num": "18", "line_name": "地铁10号线内环(巴沟--巴沟)", "station_name": "呼家楼", "status": "运营中" }, "geometry": { "type": "Point", "coordinates": [ 116.455454956155805, 39.92198764200878 ] } },
{ "type": "Feature", "properties": { "station_num": "19", "line_name": "地铁10号线内环(巴沟--巴沟)", "station_name": "金台夕照", "status": "运营中" }, "geometry": { "type": "Point", "coordinates": [ 116.455558097425353, 39.91545716035418 ] } },
{ "type": "Feature", "properties": { "station_num": "20", "line_name": "地铁10号线内环(巴沟--巴沟)", "station_name": "国贸", "status": "运营中" }, "geometry": { "type": "Point", "coordinates": [ 116.455697496079708, 39.907775821516466 ] } },
{ "type": "Feature", "properties": { "station_num": "21", "line_name": "地铁10号线内环(巴沟--巴沟)", "station_name": "双井", "status": "运营中" }, "geometry": { "type": "Point", "coordinates": [ 116.455692440099995, 39.892184502711437 ] } },
{ "type": "Feature", "properties": { "station_num": "22", "line_name": "地铁10号线内环(巴沟--巴沟)", "station_name": "劲松", "status": "运营中" }, "geometry": { "type": "Point", "coordinates": [ 116.455280299981652, 39.883138939494984 ] } },
{ "type": "Feature", "properties": { "station_num": "23", "line_name": "地铁10号线内环(巴沟--巴沟)", "station_name": "潘家园", "status": "运营中" }, "geometry": { "type": "Point", "coordinates": [ 116.454783911481883, 39.874058202831264 ] } },
{ "type": "Feature", "properties": { "station_num": "24", "line_name": "地铁10号线内环(巴沟--巴沟)", "station_name": "十里河", "status": "运营中" }, "geometry": { "type": "Point", "coordinates": [ 116.452782065887348, 39.86428700841666 ] } },
{ "type": "Feature", "properties": { "station_num": "25", "line_name": "地铁10号线内环(巴沟--巴沟)", "station_name": "分钟寺", "status": "运营中" }, "geometry": { "type": "Point", "coordinates": [ 116.447816363915464, 39.850883632384161 ] } },
{ "type": "Feature", "properties": { "station_num": "26", "line_name": "地铁10号线内环(巴沟--巴沟)", "station_name": "成寿寺", "status": "运营中" }, "geometry": { "type": "Point", "coordinates": [ 116.441459270319058, 39.844517988737515 ] } },
{ "type": "Feature", "properties": { "station_num": "27", "line_name": "地铁10号线内环(巴沟--巴沟)", "station_name": "宋家庄", "status": "运营中" }, "geometry": { "type": "Point", "coordinates": [ 116.422152959523402, 39.844463010900661 ] } },
{ "type": "Feature", "properties": { "station_num": "28", "line_name": "地铁10号线内环(巴沟--巴沟)", "station_name": "石榴庄", "status": "运营中" }, "geometry": { "type": "Point", "coordinates": [ 116.407871786920651, 39.84450709301543 ] } },
{ "type": "Feature", "properties": { "station_num": "29", "line_name": "地铁10号线内环(巴沟--巴沟)", "station_name": "大红门", "status": "运营中" }, "geometry": { "type": "Point", "coordinates": [ 116.392918238761112, 39.843982416784151 ] } },
{ "type": "Feature", "properties": { "station_num": "30", "line_name": "地铁10号线内环(巴沟--巴沟)", "station_name": "角门东", "status": "运营中" }, "geometry": { "type": "Point", "coordinates": [ 116.379419516166422, 39.84374025463422 ] } },
{ "type": "Feature", "properties": { "station_num": "31", "line_name": "地铁10号线内环(巴沟--巴沟)", "station_name": "角门西", "status": "运营中" }, "geometry": { "type": "Point", "coordinates": [ 116.364940899565838, 39.844469243994162 ] } },
{ "type": "Feature", "properties": { "station_num": "32", "line_name": "地铁10号线内环(巴沟--巴沟)", "station_name": "草桥", "status": "运营中" }, "geometry": { "type": "Point", "coordinates": [ 116.345209029496019, 39.844517556329244 ] } },
{ "type": "Feature", "properties": { "station_num": "33", "line_name": "地铁10号线内环(巴沟--巴沟)", "station_name": "纪家庙", "status": "运营中" }, "geometry": { "type": "Point", "coordinates": [ 116.327242769036758, 39.843114577410503 ] } },
{ "type": "Feature", "properties": { "station_num": "34", "line_name": "地铁10号线内环(巴沟--巴沟)", "station_name": "首经贸", "status": "运营中" }, "geometry": { "type": "Point", "coordinates": [ 116.31409384572936, 39.84316978998261 ] } },
{ "type": "Feature", "properties": { "station_num": "35", "line_name": "地铁10号线内环(巴沟--巴沟)", "station_name": "丰台站", "status": "运营中" }, "geometry": { "type": "Point", "coordinates": [ 116.298425641046251, 39.848983954616187 ] } },
{ "type": "Feature", "properties": { "station_num": "36", "line_name": "地铁10号线内环(巴沟--巴沟)", "station_name": "泥洼", "status": "运营中" }, "geometry": { "type": "Point", "coordinates": [ 116.298097246894841, 39.857344034657409 ] } },
{ "type": "Feature", "properties": { "station_num": "37", "line_name": "地铁10号线内环(巴沟--巴沟)", "station_name": "西局", "status": "运营中" }, "geometry": { "type": "Point", "coordinates": [ 116.297741041204119, 39.864612241807762 ] } },
{ "type": "Feature", "properties": { "station_num": "38", "line_name": "地铁10号线内环(巴沟--巴沟)", "station_name": "六里桥", "status": "运营中" }, "geometry": { "type": "Point", "coordinates": [ 116.296732219039725, 39.878975204261572 ] } },
{ "type": "Feature", "properties": { "station_num": "39", "line_name": "地铁10号线内环(巴沟--巴沟)", "station_name": "莲花桥", "status": "运营中" }, "geometry": { "type": "Point", "coordinates": [ 116.304253716121082, 39.896589252515746 ] } },
{ "type": "Feature", "properties": { "station_num": "40", "line_name": "地铁10号线内环(巴沟--巴沟)", "station_name": "公主坟", "status": "运营中" }, "geometry": { "type": "Point", "coordinates": [ 116.30419563307764, 39.906199928571787 ] } },
{ "type": "Feature", "properties": { "station_num": "41", "line_name": "地铁10号线内环(巴沟--巴沟)", "station_name": "西钓鱼台", "status": "运营中" }, "geometry": { "type": "Point", "coordinates": [ 116.291829030811613, 39.922101258990345 ] } },
{ "type": "Feature", "properties": { "station_num": "42", "line_name": "地铁10号线内环(巴沟--巴沟)", "station_name": "慈寿寺", "status": "运营中" }, "geometry": { "type": "Point", "coordinates": [ 116.289234368587401, 39.932098871374279 ] } },
{ "type": "Feature", "properties": { "station_num": "43", "line_name": "地铁10号线内环(巴沟--巴沟)", "station_name": "车道沟", "status": "运营中" }, "geometry": { "type": "Point", "coordinates": [ 116.287750074200417, 39.94667051841494 ] } },
{ "type": "Feature", "properties": { "station_num": "44", "line_name": "地铁10号线内环(巴沟--巴沟)", "station_name": "长春桥", "status": "运营中" }, "geometry": { "type": "Point", "coordinates": [ 116.288185012601915, 39.957273450976309 ] } },
{ "type": "Feature", "properties": { "station_num": "45", "line_name": "地铁10号线内环(巴沟--巴沟)", "station_name": "火器营", "status": "运营中" }, "geometry": { "type": "Point", "coordinates": [ 116.282995418648497, 39.964691575411457 ] } },
{ "type": "Feature", "properties": { "station_num": "46", "line_name": "地铁10号线内环(巴沟--巴沟)", "station_name": "巴沟", "status": "运营中" }, "geometry": { "type": "Point", "coordinates": [ 116.287286531590453, 39.973161152348524 ] } },
{ "type": "Feature", "properties": { "station_num": "1", "line_name": "地铁10号线外环(车道沟--车道沟)", "station_name": "车道沟", "status": "运营中" }, "geometry": { "type": "Point", "coordinates": [ 116.287750074200417, 39.94667051841494 ] } },
{ "type": "Feature", "properties": { "station_num": "2", "line_name": "地铁10号线外环(车道沟--车道沟)", "station_name": "慈寿寺", "status": "运营中" }, "geometry": { "type": "Point", "coordinates": [ 116.289234368587401, 39.932098871374279 ] } },
{ "type": "Feature", "properties": { "station_num": "3", "line_name": "地铁10号线外环(车道沟--车道沟)", "station_name": "西钓鱼台", "status": "运营中" }, "geometry": { "type": "Point", "coordinates": [ 116.291829030811613, 39.922101258990345 ] } },
{ "type": "Feature", "properties": { "station_num": "4", "line_name": "地铁10号线外环(车道沟--车道沟)", "station_name": "公主坟", "status": "运营中" }, "geometry": { "type": "Point", "coordinates": [ 116.30419563307764, 39.906199928571787 ] } },
{ "type": "Feature", "properties": { "station_num": "5", "line_name": "地铁10号线外环(车道沟--车道沟)", "station_name": "莲花桥", "status": "运营中" }, "geometry": { "type": "Point", "coordinates": [ 116.304253716121082, 39.896589252515746 ] } },
{ "type": "Feature", "properties": { "station_num": "6", "line_name": "地铁10号线外环(车道沟--车道沟)", "station_name": "六里桥", "status": "运营中" }, "geometry": { "type": "Point", "coordinates": [ 116.296732219039725, 39.878975204261572 ] } },
{ "type": "Feature", "properties": { "station_num": "7", "line_name": "地铁10号线外环(车道沟--车道沟)", "station_name": "西局", "status": "运营中" }, "geometry": { "type": "Point", "coordinates": [ 116.297741041204119, 39.864612241807762 ] } },
{ "type": "Feature", "properties": { "station_num": "8", "line_name": "地铁10号线外环(车道沟--车道沟)", "station_name": "泥洼", "status": "运营中" }, "geometry": { "type": "Point", "coordinates": [ 116.298097246894841, 39.857344034657409 ] } },
{ "type": "Feature", "properties": { "station_num": "9", "line_name": "地铁10号线外环(车道沟--车道沟)", "station_name": "丰台站", "status": "运营中" }, "geometry": { "type": "Point", "coordinates": [ 116.298425641046251, 39.848983954616187 ] } },
{ "type": "Feature", "properties": { "station_num": "10", "line_name": "地铁10号线外环(车道沟--车道沟)", "station_name": "首经贸", "status": "运营中" }, "geometry": { "type": "Point", "coordinates": [ 116.31409384572936, 39.84316978998261 ] } },
{ "type": "Feature", "properties": { "station_num": "11", "line_name": "地铁10号线外环(车道沟--车道沟)", "station_name": "纪家庙", "status": "运营中" }, "geometry": { "type": "Point", "coordinates": [ 116.327242769036758, 39.843114577410503 ] } },
{ "type": "Feature", "properties": { "station_num": "12", "line_name": "地铁10号线外环(车道沟--车道沟)", "station_name": "草桥", "status": "运营中" }, "geometry": { "type": "Point", "coordinates": [ 116.345209029496019, 39.844517556329244 ] } },
{ "type": "Feature", "properties": { "station_num": "13", "line_name": "地铁10号线外环(车道沟--车道沟)", "station_name": "角门西", "status": "运营中" }, "geometry": { "type": "Point", "coordinates": [ 116.364940899565838, 39.844469243994162 ] } },
{ "type": "Feature", "properties": { "station_num": "14", "line_name": "地铁10号线外环(车道沟--车道沟)", "station_name": "角门东", "status": "运营中" }, "geometry": { "type": "Point", "coordinates": [ 116.379419516166422, 39.84374025463422 ] } },
{ "type": "Feature", "properties": { "station_num": "15", "line_name": "地铁10号线外环(车道沟--车道沟)", "station_name": "大红门", "status": "运营中" }, "geometry": { "type": "Point", "coordinates": [ 116.392918238761112, 39.843982416784151 ] } },
{ "type": "Feature", "properties": { "station_num": "16", "line_name": "地铁10号线外环(车道沟--车道沟)", "station_name": "石榴庄", "status": "运营中" }, "geometry": { "type": "Point", "coordinates": [ 116.407871786920651, 39.84450709301543 ] } },
{ "type": "Feature", "properties": { "station_num": "17", "line_name": "地铁10号线外环(车道沟--车道沟)", "station_name": "宋家庄", "status": "运营中" }, "geometry": { "type": "Point", "coordinates": [ 116.422152959523402, 39.844463010900661 ] } },
{ "type": "Feature", "properties": { "station_num": "18", "line_name": "地铁10号线外环(车道沟--车道沟)", "station_name": "成寿寺", "status": "运营中" }, "geometry": { "type": "Point", "coordinates": [ 116.441459270319058, 39.844517988737515 ] } },
{ "type": "Feature", "properties": { "station_num": "19", "line_name": "地铁10号线外环(车道沟--车道沟)", "station_name": "分钟寺", "status": "运营中" }, "geometry": { "type": "Point", "coordinates": [ 116.447816363915464, 39.850883632384161 ] } },
{ "type": "Feature", "properties": { "station_num": "20", "line_name": "地铁10号线外环(车道沟--车道沟)", "station_name": "十里河", "status": "运营中" }, "geometry": { "type": "Point", "coordinates": [ 116.452782065887348, 39.86428700841666 ] } },
{ "type": "Feature", "properties": { "station_num": "21", "line_name": "地铁10号线外环(车道沟--车道沟)", "station_name": "潘家园", "status": "运营中" }, "geometry": { "type": "Point", "coordinates": [ 116.454783911481883, 39.874058202831264 ] } },
{ "type": "Feature", "properties": { "station_num": "22", "line_name": "地铁10号线外环(车道沟--车道沟)", "station_name": "劲松", "status": "运营中" }, "geometry": { "type": "Point", "coordinates": [ 116.455280299981652, 39.883138939494984 ] } },
{ "type": "Feature", "properties": { "station_num": "23", "line_name": "地铁10号线外环(车道沟--车道沟)", "station_name": "双井", "status": "运营中" }, "geometry": { "type": "Point", "coordinates": [ 116.455692440099995, 39.892184502711437 ] } },
{ "type": "Feature", "properties": { "station_num": "24", "line_name": "地铁10号线外环(车道沟--车道沟)", "station_name": "国贸", "status": "运营中" }, "geometry": { "type": "Point", "coordinates": [ 116.455697496079708, 39.907775821516466 ] } },
{ "type": "Feature", "properties": { "station_num": "25", "line_name": "地铁10号线外环(车道沟--车道沟)", "station_name": "金台夕照", "status": "运营中" }, "geometry": { "type": "Point", "coordinates": [ 116.455558097425353, 39.91545716035418 ] } },
{ "type": "Feature", "properties": { "station_num": "26", "line_name": "地铁10号线外环(车道沟--车道沟)", "station_name": "呼家楼", "status": "运营中" }, "geometry": { "type": "Point", "coordinates": [ 116.455454956155805, 39.92198764200878 ] } },
{ "type": "Feature", "properties": { "station_num": "27", "line_name": "地铁10号线外环(车道沟--车道沟)", "station_name": "团结湖", "status": "运营中" }, "geometry": { "type": "Point", "coordinates": [ 116.455659277313558, 39.932417709965399 ] } },
{ "type": "Feature", "properties": { "station_num": "28", "line_name": "地铁10号线外环(车道沟--车道沟)", "station_name": "农业展览馆", "status": "运营中" }, "geometry": { "type": "Point", "coordinates": [ 116.456379577825942, 39.939933150371075 ] } },
{ "type": "Feature", "properties": { "station_num": "29", "line_name": "地铁10号线外环(车道沟--车道沟)", "station_name": "亮马桥", "status": "运营中" }, "geometry": { "type": "Point", "coordinates": [ 116.456008395451406, 39.94805193227144 ] } },
{ "type": "Feature", "properties": { "station_num": "30", "line_name": "地铁10号线外环(车道沟--车道沟)", "station_name": "三元桥", "status": "运营中" }, "geometry": { "type": "Point", "coordinates": [ 116.450987769826426, 39.959405739487572 ] } },
{ "type": "Feature", "properties": { "station_num": "31", "line_name": "地铁10号线外环(车道沟--车道沟)", "station_name": "太阳宫", "status": "运营中" }, "geometry": { "type": "Point", "coordinates": [ 116.441276786692583, 39.971315883399399 ] } },
{ "type": "Feature", "properties": { "station_num": "32", "line_name": "地铁10号线外环(车道沟--车道沟)", "station_name": "芍药居", "status": "运营中" }, "geometry": { "type": "Point", "coordinates": [ 116.431300569267307, 39.975710386111096 ] } },
{ "type": "Feature", "properties": { "station_num": "33", "line_name": "地铁10号线外环(车道沟--车道沟)", "station_name": "惠新西街南口", "status": "运营中" }, "geometry": { "type": "Point", "coordinates": [ 116.411291906866666, 39.975719172202403 ] } },
{ "type": "Feature", "properties": { "station_num": "34", "line_name": "地铁10号线外环(车道沟--车道沟)", "station_name": "安贞门", "status": "运营中" }, "geometry": { "type": "Point", "coordinates": [ 116.399702001668672, 39.975598436130497 ] } },
{ "type": "Feature", "properties": { "station_num": "35", "line_name": "地铁10号线外环(车道沟--车道沟)", "station_name": "北土城", "status": "运营中" }, "geometry": { "type": "Point", "coordinates": [ 116.387941654751316, 39.975547700677851 ] } },
{ "type": "Feature", "properties": { "station_num": "36", "line_name": "地铁10号线外环(车道沟--车道沟)", "station_name": "健德门", "status": "运营中" }, "geometry": { "type": "Point", "coordinates": [ 116.375113679327612, 39.975147652324388 ] } },
{ "type": "Feature", "properties": { "station_num": "37", "line_name": "地铁10号线外环(车道沟--车道沟)", "station_name": "牡丹园", "status": "运营中" }, "geometry": { "type": "Point", "coordinates": [ 116.363391568360797, 39.975003220224281 ] } },
{ "type": "Feature", "properties": { "station_num": "38", "line_name": "地铁10号线外环(车道沟--车道沟)", "station_name": "西土城", "status": "运营中" }, "geometry": { "type": "Point", "coordinates": [ 116.348113581040607, 39.97500971723079 ] } },
{ "type": "Feature", "properties": { "station_num": "39", "line_name": "地铁10号线外环(车道沟--车道沟)", "station_name": "知春路", "status": "运营中" }, "geometry": { "type": "Point", "coordinates": [ 116.33519903154432, 39.975133512573194 ] } },
{ "type": "Feature", "properties": { "station_num": "40", "line_name": "地铁10号线外环(车道沟--车道沟)", "station_name": "知春里", "status": "运营中" }, "geometry": { "type": "Point", "coordinates": [ 116.322713532675181, 39.975021235581195 ] } },
{ "type": "Feature", "properties": { "station_num": "41", "line_name": "地铁10号线外环(车道沟--车道沟)", "station_name": "海淀黄庄", "status": "运营中" }, "geometry": { "type": "Point", "coordinates": [ 116.311445238162889, 39.974701776545118 ] } },
{ "type": "Feature", "properties": { "station_num": "42", "line_name": "地铁10号线外环(车道沟--车道沟)", "station_name": "苏州街", "status": "运营中" }, "geometry": { "type": "Point", "coordinates": [ 116.300237282065495, 39.974368173154211 ] } },
{ "type": "Feature", "properties": { "station_num": "43", "line_name": "地铁10号线外环(车道沟--车道沟)", "station_name": "巴沟", "status": "运营中" }, "geometry": { "type": "Point", "coordinates": [ 116.287286531590453, 39.973161152348524 ] } },
{ "type": "Feature", "properties": { "station_num": "44", "line_name": "地铁10号线外环(车道沟--车道沟)", "station_name": "火器营", "status": "运营中" }, "geometry": { "type": "Point", "coordinates": [ 116.282995418648497, 39.964691575411457 ] } },
{ "type": "Feature", "properties": { "station_num": "45", "line_name": "地铁10号线外环(车道沟--车道沟)", "station_name": "长春桥", "status": "运营中" }, "geometry": { "type": "Point", "coordinates": [ 116.288185012601915, 39.957273450976309 ] } },
{ "type": "Feature", "properties": { "station_num": "46", "line_name": "地铁10号线外环(车道沟--车道沟)", "station_name": "车道沟", "status": "运营中" }, "geometry": { "type": "Point", "coordinates": [ 116.287750074200417, 39.94667051841494 ] } },
{ "type": "Feature", "properties": { "station_num": "1", "line_name": "地铁11号线(新首钢--模式口)", "station_name": "新首钢", "status": "运营中" }, "geometry": { "type": "Point", "coordinates": [ 116.158665943296839, 39.907596813620749 ] } },
{ "type": "Feature", "properties": { "station_num": "2", "line_name": "地铁11号线(新首钢--模式口)", "station_name": "北辛安", "status": "运营中" }, "geometry": { "type": "Point", "coordinates": [ 116.158620029791962, 39.913813465149708 ] } },
{ "type": "Feature", "properties": { "station_num": "3", "line_name": "地铁11号线(新首钢--模式口)", "station_name": "金安桥", "status": "运营中" }, "geometry": { "type": "Point", "coordinates": [ 116.155187533369045, 39.920999856819328 ] } },
{ "type": "Feature", "properties": { "station_num": "4", "line_name": "地铁11号线(新首钢--模式口)", "station_name": "模式口", "status": "运营中" }, "geometry": { "type": "Point", "coordinates": [ 116.149807335366546, 39.932151721158277 ] } },
{ "type": "Feature", "properties": { "station_num": "1", "line_name": "地铁11号线(模式口--新首钢)", "station_name": "模式口", "status": "运营中" }, "geometry": { "type": "Point", "coordinates": [ 116.149807335366546, 39.932151721158277 ] } },
{ "type": "Feature", "properties": { "station_num": "2", "line_name": "地铁11号线(模式口--新首钢)", "station_name": "金安桥", "status": "运营中" }, "geometry": { "type": "Point", "coordinates": [ 116.155187533369045, 39.920999856819328 ] } },
{ "type": "Feature", "properties": { "station_num": "3", "line_name": "地铁11号线(模式口--新首钢)", "station_name": "北辛安", "status": "运营中" }, "geometry": { "type": "Point", "coordinates": [ 116.158620029791962, 39.913813465149708 ] } },
{ "type": "Feature", "properties": { "station_num": "4", "line_name": "地铁11号线(模式口--新首钢)", "station_name": "新首钢", "status": "运营中" }, "geometry": { "type": "Point", "coordinates": [ 116.158665943296839, 39.907596813620749 ] } },
{ "type": "Feature", "properties": { "station_num": "1", "line_name": "地铁12号线(四季青桥--东坝北)", "station_name": "四季青桥", "status": "运营中" }, "geometry": { "type": "Point", "coordinates": [ 116.268151439140766, 39.941185456770988 ] } },
{ "type": "Feature", "properties": { "station_num": "2", "line_name": "地铁12号线(四季青桥--东坝北)", "station_name": "蓝靛厂", "status": "运营中" }, "geometry": { "type": "Point", "coordinates": [ 116.276540499235182, 39.955879123581866 ] } },
{ "type": "Feature", "properties": { "station_num": "3", "line_name": "地铁12号线(四季青桥--东坝北)", "station_name": "长春桥", "status": "运营中" }, "geometry": { "type": "Point", "coordinates": [ 116.286457946379372, 39.956821014023802 ] } },
{ "type": "Feature", "properties": { "station_num": "4", "line_name": "地铁12号线(四季青桥--东坝北)", "station_name": "苏州桥", "status": "运营中" }, "geometry": { "type": "Point", "coordinates": [ 116.300461607422633, 39.96019234764605 ] } },
{ "type": "Feature", "properties": { "station_num": "5", "line_name": "地铁12号线(四季青桥--东坝北)", "station_name": "人民大学", "status": "运营中" }, "geometry": { "type": "Point", "coordinates": [ 116.317257235657664, 39.965735092495628 ] } },
{ "type": "Feature", "properties": { "station_num": "6", "line_name": "地铁12号线(四季青桥--东坝北)", "station_name": "大钟寺", "status": "运营中" }, "geometry": { "type": "Point", "coordinates": [ 116.337008154132789, 39.966146535304738 ] } },
{ "type": "Feature", "properties": { "station_num": "7", "line_name": "地铁12号线(四季青桥--东坝北)", "station_name": "蓟门桥", "status": "运营中" }, "geometry": { "type": "Point", "coordinates": [ 116.349767417887222, 39.966382354143676 ] } },
{ "type": "Feature", "properties": { "station_num": "8", "line_name": "地铁12号线(四季青桥--东坝北)", "station_name": "北太平庄", "status": "运营中" }, "geometry": { "type": "Point", "coordinates": [ 116.363810026193022, 39.966497034598852 ] } },
{ "type": "Feature", "properties": { "station_num": "9", "line_name": "地铁12号线(四季青桥--东坝北)", "station_name": "马甸桥", "status": "运营中" }, "geometry": { "type": "Point", "coordinates": [ 116.375971886969282, 39.966863253319573 ] } },
{ "type": "Feature", "properties": { "station_num": "10", "line_name": "地铁12号线(四季青桥--东坝北)", "station_name": "安华桥", "status": "运营中" }, "geometry": { "type": "Point", "coordinates": [ 116.390289993944478, 39.967188306604889 ] } },
{ "type": "Feature", "properties": { "station_num": "11", "line_name": "地铁12号线(四季青桥--东坝北)", "station_name": "安贞桥", "status": "运营中" }, "geometry": { "type": "Point", "coordinates": [ 116.400968422611044, 39.967505984633881 ] } },
{ "type": "Feature", "properties": { "station_num": "12", "line_name": "地铁12号线(四季青桥--东坝北)", "station_name": "和平西桥", "status": "运营中" }, "geometry": { "type": "Point", "coordinates": [ 116.411733337660735, 39.967755789662391 ] } },
{ "type": "Feature", "properties": { "station_num": "13", "line_name": "地铁12号线(四季青桥--东坝北)", "station_name": "光熙门", "status": "运营中" }, "geometry": { "type": "Point", "coordinates": [ 116.42376780000032, 39.968101288166849 ] } },
{ "type": "Feature", "properties": { "station_num": "14", "line_name": "地铁12号线(四季青桥--东坝北)", "station_name": "西坝河", "status": "运营中" }, "geometry": { "type": "Point", "coordinates": [ 116.436050190634433, 39.964338598794143 ] } },
{ "type": "Feature", "properties": { "station_num": "15", "line_name": "地铁12号线(四季青桥--东坝北)", "station_name": "三元桥", "status": "运营中" }, "geometry": { "type": "Point", "coordinates": [ 116.452719860949244, 39.959747692145164 ] } },
{ "type": "Feature", "properties": { "station_num": "16", "line_name": "地铁12号线(四季青桥--东坝北)", "station_name": "将台西", "status": "运营中" }, "geometry": { "type": "Point", "coordinates": [ 116.473955366261919, 39.971380337821842 ] } },
{ "type": "Feature", "properties": { "station_num": "17", "line_name": "地铁12号线(四季青桥--东坝北)", "station_name": "高家园", "status": "运营中" }, "geometry": { "type": "Point", "coordinates": [ 116.485504211511525, 39.97912347975354 ] } },
{ "type": "Feature", "properties": { "station_num": "18", "line_name": "地铁12号线(四季青桥--东坝北)", "station_name": "驼房营", "status": "运营中" }, "geometry": { "type": "Point", "coordinates": [ 116.499633742972705, 39.979231529054559 ] } },
{ "type": "Feature", "properties": { "station_num": "19", "line_name": "地铁12号线(四季青桥--东坝北)", "station_name": "东坝西", "status": "运营中" }, "geometry": { "type": "Point", "coordinates": [ 116.528779866772027, 39.973144118149719 ] } },
{ "type": "Feature", "properties": { "station_num": "20", "line_name": "地铁12号线(四季青桥--东坝北)", "station_name": "东坝北", "status": "运营中" }, "geometry": { "type": "Point", "coordinates": [ 116.551232962188422, 39.974555390078464 ] } },
{ "type": "Feature", "properties": { "station_num": "1", "line_name": "地铁12号线(东坝北--四季青桥)", "station_name": "东坝北", "status": "运营中" }, "geometry": { "type": "Point", "coordinates": [ 116.551232962188422, 39.974555390078464 ] } },
{ "type": "Feature", "properties": { "station_num": "2", "line_name": "地铁12号线(东坝北--四季青桥)", "station_name": "东坝西", "status": "运营中" }, "geometry": { "type": "Point", "coordinates": [ 116.528779866772027, 39.973144118149719 ] } },
{ "type": "Feature", "properties": { "station_num": "3", "line_name": "地铁12号线(东坝北--四季青桥)", "station_name": "驼房营", "status": "运营中" }, "geometry": { "type": "Point", "coordinates": [ 116.499633742972705, 39.979231529054559 ] } },
{ "type": "Feature", "properties": { "station_num": "4", "line_name": "地铁12号线(东坝北--四季青桥)", "station_name": "高家园", "status": "运营中" }, "geometry": { "type": "Point", "coordinates": [ 116.485504211511525, 39.97912347975354 ] } },
{ "type": "Feature", "properties": { "station_num": "5", "line_name": "地铁12号线(东坝北--四季青桥)", "station_name": "将台西", "status": "运营中" }, "geometry": { "type": "Point", "coordinates": [ 116.473955366261919, 39.971380337821842 ] } },
{ "type": "Feature", "properties": { "station_num": "6", "line_name": "地铁12号线(东坝北--四季青桥)", "station_name": "三元桥", "status": "运营中" }, "geometry": { "type": "Point", "coordinates": [ 116.452719860949244, 39.959747692145164 ] } },
{ "type": "Feature", "properties": { "station_num": "7", "line_name": "地铁12号线(东坝北--四季青桥)", "station_name": "西坝河", "status": "运营中" }, "geometry": { "type": "Point", "coordinates": [ 116.436050190634433, 39.964338598794143 ] } },
{ "type": "Feature", "properties": { "station_num": "8", "line_name": "地铁12号线(东坝北--四季青桥)", "station_name": "光熙门", "status": "运营中" }, "geometry": { "type": "Point", "coordinates": [ 116.42376780000032, 39.968101288166849 ] } },
{ "type": "Feature", "properties": { "station_num": "9", "line_name": "地铁12号线(东坝北--四季青桥)", "station_name": "和平西桥", "status": "运营中" }, "geometry": { "type": "Point", "coordinates": [ 116.411733337660735, 39.967755789662391 ] } },
{ "type": "Feature", "properties": { "station_num": "10", "line_name": "地铁12号线(东坝北--四季青桥)", "station_name": "安贞桥", "status": "运营中" }, "geometry": { "type": "Point", "coordinates": [ 116.400968422611044, 39.967505984633881 ] } },
{ "type": "Feature", "properties": { "station_num": "11", "line_name": "地铁12号线(东坝北--四季青桥)", "station_name": "安华桥", "status": "运营中" }, "geometry": { "type": "Point", "coordinates": [ 116.390289993944478, 39.967188306604889 ] } },
{ "type": "Feature", "properties": { "station_num": "12", "line_name": "地铁12号线(东坝北--四季青桥)", "station_name": "马甸桥", "status": "运营中" }, "geometry": { "type": "Point", "coordinates": [ 116.375971886969282, 39.966863253319573 ] } },
{ "type": "Feature", "properties": { "station_num": "13", "line_name": "地铁12号线(东坝北--四季青桥)", "station_name": "北太平庄", "status": "运营中" }, "geometry": { "type": "Point", "coordinates": [ 116.363810026193022, 39.966497034598852 ] } },
{ "type": "Feature", "properties": { "station_num": "14", "line_name": "地铁12号线(东坝北--四季青桥)", "station_name": "蓟门桥", "status": "运营中" }, "geometry": { "type": "Point", "coordinates": [ 116.349767417887222, 39.966382354143676 ] } },
{ "type": "Feature", "properties": { "station_num": "15", "line_name": "地铁12号线(东坝北--四季青桥)", "station_name": "大钟寺", "status": "运营中" }, "geometry": { "type": "Point", "coordinates": [ 116.337008154132789, 39.966146535304738 ] } },
{ "type": "Feature", "properties": { "station_num": "16", "line_name": "地铁12号线(东坝北--四季青桥)", "station_name": "人民大学", "status": "运营中" }, "geometry": { "type": "Point", "coordinates": [ 116.317257235657664, 39.965735092495628 ] } },
{ "type": "Feature", "properties": { "station_num": "17", "line_name": "地铁12号线(东坝北--四季青桥)", "station_name": "苏州桥", "status": "运营中" }, "geometry": { "type": "Point", "coordinates": [ 116.300461607422633, 39.96019234764605 ] } },
{ "type": "Feature", "properties": { "station_num": "18", "line_name": "地铁12号线(东坝北--四季青桥)", "station_name": "长春桥", "status": "运营中" }, "geometry": { "type": "Point", "coordinates": [ 116.286457946379372, 39.956821014023802 ] } },
{ "type": "Feature", "properties": { "station_num": "19", "line_name": "地铁12号线(东坝北--四季青桥)", "station_name": "蓝靛厂", "status": "运营中" }, "geometry": { "type": "Point", "coordinates": [ 116.276540499235182, 39.955879123581866 ] } },
{ "type": "Feature", "properties": { "station_num": "20", "line_name": "地铁12号线(东坝北--四季青桥)", "station_name": "四季青桥", "status": "运营中" }, "geometry": { "type": "Point", "coordinates": [ 116.268151439140766, 39.941185456770988 ] } },
{ "type": "Feature", "properties": { "station_num": "1", "line_name": "地铁13号线(西直门--东直门)", "station_name": "西直门", "status": "运营中" }, "geometry": { "type": "Point", "coordinates": [ 116.34703216487064, 39.940310899660048 ] } },
{ "type": "Feature", "properties": { "station_num": "2", "line_name": "地铁13号线(西直门--东直门)", "station_name": "大钟寺", "status": "运营中" }, "geometry": { "type": "Point", "coordinates": [ 116.338958984411079, 39.96526601520118 ] } },
{ "type": "Feature", "properties": { "station_num": "3", "line_name": "地铁13号线(西直门--东直门)", "station_name": "知春路", "status": "运营中" }, "geometry": { "type": "Point", "coordinates": [ 116.333790188000179, 39.975139135448863 ] } },
{ "type": "Feature", "properties": { "station_num": "4", "line_name": "地铁13号线(西直门--东直门)", "station_name": "五道口", "status": "运营中" }, "geometry": { "type": "Point", "coordinates": [ 116.331575110066382, 39.99156062095873 ] } },
{ "type": "Feature", "properties": { "station_num": "5", "line_name": "地铁13号线(西直门--东直门)", "station_name": "上地", "status": "运营中" }, "geometry": { "type": "Point", "coordinates": [ 116.314061161407551, 40.031705305691773 ] } },
{ "type": "Feature", "properties": { "station_num": "6", "line_name": "地铁13号线(西直门--东直门)", "station_name": "清河站", "status": "运营中" }, "geometry": { "type": "Point", "coordinates": [ 116.30867614760605, 40.039798008623642 ] } },
{ "type": "Feature", "properties": { "station_num": "7", "line_name": "地铁13号线(西直门--东直门)", "station_name": "西二旗", "status": "运营中" }, "geometry": { "type": "Point", "coordinates": [ 116.300190629764344, 40.051756650580479 ] } },
{ "type": "Feature", "properties": { "station_num": "8", "line_name": "地铁13号线(西直门--东直门)", "station_name": "龙泽", "status": "运营中" }, "geometry": { "type": "Point", "coordinates": [ 116.313294097035765, 40.069579629111409 ] } },
{ "type": "Feature", "properties": { "station_num": "9", "line_name": "地铁13号线(西直门--东直门)", "station_name": "回龙观", "status": "运营中" }, "geometry": { "type": "Point", "coordinates": [ 116.329942925518708, 40.069465752577017 ] } },
{ "type": "Feature", "properties": { "station_num": "10", "line_name": "地铁13号线(西直门--东直门)", "station_name": "霍营", "status": "运营中" }, "geometry": { "type": "Point", "coordinates": [ 116.354575228596275, 40.06918985946799 ] } },
{ "type": "Feature", "properties": { "station_num": "11", "line_name": "地铁13号线(西直门--东直门)", "station_name": "立水桥", "status": "运营中" }, "geometry": { "type": "Point", "coordinates": [ 116.404921469367821, 40.051427302653742 ] } },
{ "type": "Feature", "properties": { "station_num": "12", "line_name": "地铁13号线(西直门--东直门)", "station_name": "北苑", "status": "运营中" }, "geometry": { "type": "Point", "coordinates": [ 116.428288316884263, 40.041609964557544 ] } },
{ "type": "Feature", "properties": { "station_num": "13", "line_name": "地铁13号线(西直门--东直门)", "station_name": "望京西", "status": "运营中" }, "geometry": { "type": "Point", "coordinates": [ 116.441163661789204, 39.993720753695321 ] } },
{ "type": "Feature", "properties": { "station_num": "14", "line_name": "地铁13号线(西直门--东直门)", "station_name": "芍药居", "status": "运营中" }, "geometry": { "type": "Point", "coordinates": [ 116.429695321026273, 39.976253948321123 ] } },
{ "type": "Feature", "properties": { "station_num": "15", "line_name": "地铁13号线(西直门--东直门)", "station_name": "光熙门", "status": "运营中" }, "geometry": { "type": "Point", "coordinates": [ 116.425535898920216, 39.966949559341977 ] } },
{ "type": "Feature", "properties": { "station_num": "16", "line_name": "地铁13号线(西直门--东直门)", "station_name": "柳芳", "status": "运营中" }, "geometry": { "type": "Point", "coordinates": [ 116.426505885082719, 39.956771238090418 ] } },
{ "type": "Feature", "properties": { "station_num": "17", "line_name": "地铁13号线(西直门--东直门)", "station_name": "东直门", "status": "运营中" }, "geometry": { "type": "Point", "coordinates": [ 116.428887233345762, 39.941157158443573 ] } },
{ "type": "Feature", "properties": { "station_num": "1", "line_name": "地铁13号线(东直门--西直门)", "station_name": "东直门", "status": "运营中" }, "geometry": { "type": "Point", "coordinates": [ 116.428887233345762, 39.941157158443573 ] } },
{ "type": "Feature", "properties": { "station_num": "2", "line_name": "地铁13号线(东直门--西直门)", "station_name": "柳芳", "status": "运营中" }, "geometry": { "type": "Point", "coordinates": [ 116.426505885082719, 39.956771238090418 ] } },
{ "type": "Feature", "properties": { "station_num": "3", "line_name": "地铁13号线(东直门--西直门)", "station_name": "光熙门", "status": "运营中" }, "geometry": { "type": "Point", "coordinates": [ 116.425535898920216, 39.966949559341977 ] } },
{ "type": "Feature", "properties": { "station_num": "4", "line_name": "地铁13号线(东直门--西直门)", "station_name": "芍药居", "status": "运营中" }, "geometry": { "type": "Point", "coordinates": [ 116.429695321026273, 39.976253948321123 ] } },
{ "type": "Feature", "properties": { "station_num": "5", "line_name": "地铁13号线(东直门--西直门)", "station_name": "望京西", "status": "运营中" }, "geometry": { "type": "Point", "coordinates": [ 116.441163661789204, 39.993720753695321 ] } },
{ "type": "Feature", "properties": { "station_num": "6", "line_name": "地铁13号线(东直门--西直门)", "station_name": "北苑", "status": "运营中" }, "geometry": { "type": "Point", "coordinates": [ 116.428288316884263, 40.041609964557544 ] } },
{ "type": "Feature", "properties": { "station_num": "7", "line_name": "地铁13号线(东直门--西直门)", "station_name": "立水桥", "status": "运营中" }, "geometry": { "type": "Point", "coordinates": [ 116.404921469367821, 40.051427302653742 ] } },
{ "type": "Feature", "properties": { "station_num": "8", "line_name": "地铁13号线(东直门--西直门)", "station_name": "霍营", "status": "运营中" }, "geometry": { "type": "Point", "coordinates": [ 116.354575228596275, 40.06918985946799 ] } },
{ "type": "Feature", "properties": { "station_num": "9", "line_name": "地铁13号线(东直门--西直门)", "station_name": "回龙观", "status": "运营中" }, "geometry": { "type": "Point", "coordinates": [ 116.329942925518708, 40.069465752577017 ] } },
{ "type": "Feature", "properties": { "station_num": "10", "line_name": "地铁13号线(东直门--西直门)", "station_name": "龙泽", "status": "运营中" }, "geometry": { "type": "Point", "coordinates": [ 116.313294097035765, 40.069579629111409 ] } },
{ "type": "Feature", "properties": { "station_num": "11", "line_name": "地铁13号线(东直门--西直门)", "station_name": "西二旗", "status": "运营中" }, "geometry": { "type": "Point", "coordinates": [ 116.300190629764344, 40.051756650580479 ] } },
{ "type": "Feature", "properties": { "station_num": "12", "line_name": "地铁13号线(东直门--西直门)", "station_name": "清河站", "status": "运营中" }, "geometry": { "type": "Point", "coordinates": [ 116.30867614760605, 40.039798008623642 ] } },
{ "type": "Feature", "properties": { "station_num": "13", "line_name": "地铁13号线(东直门--西直门)", "station_name": "上地", "status": "运营中" }, "geometry": { "type": "Point", "coordinates": [ 116.314061161407551, 40.031705305691773 ] } },
{ "type": "Feature", "properties": { "station_num": "14", "line_name": "地铁13号线(东直门--西直门)", "station_name": "五道口", "status": "运营中" }, "geometry": { "type": "Point", "coordinates": [ 116.331575110066382, 39.99156062095873 ] } },
{ "type": "Feature", "properties": { "station_num": "15", "line_name": "地铁13号线(东直门--西直门)", "station_name": "知春路", "status": "运营中" }, "geometry": { "type": "Point", "coordinates": [ 116.333790188000179, 39.975139135448863 ] } },
{ "type": "Feature", "properties": { "station_num": "16", "line_name": "地铁13号线(东直门--西直门)", "station_name": "大钟寺", "status": "运营中" }, "geometry": { "type": "Point", "coordinates": [ 116.338958984411079, 39.96526601520118 ] } },
{ "type": "Feature", "properties": { "station_num": "17", "line_name": "地铁13号线(东直门--西直门)", "station_name": "西直门", "status": "运营中" }, "geometry": { "type": "Point", "coordinates": [ 116.34703216487064, 39.940310899660048 ] } },
{ "type": "Feature", "properties": { "station_num": "1", "line_name": "地铁13B号线(马连洼--东直门)", "station_name": "马连洼", "status": "建设中" }, "geometry": { "type": "Point", "coordinates": [ 116.268227092102336, 40.03148055455943 ] } },
{ "type": "Feature", "properties": { "station_num": "2", "line_name": "地铁13B号线(马连洼--东直门)", "station_name": "上地软件园", "status": "建设中" }, "geometry": { "type": "Point", "coordinates": [ 116.280764927976918, 40.042707055501602 ] } },
{ "type": "Feature", "properties": { "station_num": "3", "line_name": "地铁13B号线(马连洼--东直门)", "station_name": "东北旺", "status": "建设中" }, "geometry": { "type": "Point", "coordinates": [ 116.288954830085828, 40.051810008775341 ] } },
{ "type": "Feature", "properties": { "station_num": "4", "line_name": "地铁13B号线(马连洼--东直门)", "station_name": "龙泽西", "status": "建设中" }, "geometry": { "type": "Point", "coordinates": [ 116.303359587606906, 40.071425873341852 ] } },
{ "type": "Feature", "properties": { "station_num": "5", "line_name": "地铁13B号线(马连洼--东直门)", "station_name": "龙泽", "status": "建设中" }, "geometry": { "type": "Point", "coordinates": [ 116.313294097035765, 40.069579629111409 ] } },
{ "type": "Feature", "properties": { "station_num": "6", "line_name": "地铁13B号线(马连洼--东直门)", "station_name": "回龙观", "status": "建设中" }, "geometry": { "type": "Point", "coordinates": [ 116.329942925518708, 40.069465752577017 ] } },
{ "type": "Feature", "properties": { "station_num": "7", "line_name": "地铁13B号线(马连洼--东直门)", "station_name": "霍营", "status": "建设中" }, "geometry": { "type": "Point", "coordinates": [ 116.354575228596275, 40.06918985946799 ] } },
{ "type": "Feature", "properties": { "station_num": "8", "line_name": "地铁13B号线(马连洼--东直门)", "station_name": "东小口", "status": "建设中" }, "geometry": { "type": "Point", "coordinates": [ 116.379104849973345, 40.062286308412055 ] } },
{ "type": "Feature", "properties": { "station_num": "9", "line_name": "地铁13B号线(马连洼--东直门)", "station_name": "立水桥", "status": "建设中" }, "geometry": { "type": "Point", "coordinates": [ 116.404921469367821, 40.051427302653742 ] } },
{ "type": "Feature", "properties": { "station_num": "10", "line_name": "地铁13B号线(马连洼--东直门)", "station_name": "北苑", "status": "建设中" }, "geometry": { "type": "Point", "coordinates": [ 116.428288316884263, 40.041609964557544 ] } },
{ "type": "Feature", "properties": { "station_num": "11", "line_name": "地铁13B号线(马连洼--东直门)", "station_name": "望京西", "status": "建设中" }, "geometry": { "type": "Point", "coordinates": [ 116.441163661789204, 39.993720753695321 ] } },
{ "type": "Feature", "properties": { "station_num": "12", "line_name": "地铁13B号线(马连洼--东直门)", "station_name": "芍药居", "status": "建设中" }, "geometry": { "type": "Point", "coordinates": [ 116.429695321026273, 39.976253948321123 ] } },
{ "type": "Feature", "properties": { "station_num": "13", "line_name": "地铁13B号线(马连洼--东直门)", "station_name": "光熙门", "status": "建设中" }, "geometry": { "type": "Point", "coordinates": [ 116.425535898920216, 39.966949559341977 ] } },
{ "type": "Feature", "properties": { "station_num": "14", "line_name": "地铁13B号线(马连洼--东直门)", "station_name": "柳芳", "status": "建设中" }, "geometry": { "type": "Point", "coordinates": [ 116.426505885082719, 39.956771238090418 ] } },
{ "type": "Feature", "properties": { "station_num": "15", "line_name": "地铁13B号线(马连洼--东直门)", "station_name": "东直门", "status": "建设中" }, "geometry": { "type": "Point", "coordinates": [ 116.428887233345762, 39.941157158443573 ] } },
{ "type": "Feature", "properties": { "station_num": "1", "line_name": "地铁13B号线(东直门--马连洼)", "station_name": "东直门", "status": "建设中" }, "geometry": { "type": "Point", "coordinates": [ 116.428887233345762, 39.941157158443573 ] } },
{ "type": "Feature", "properties": { "station_num": "2", "line_name": "地铁13B号线(东直门--马连洼)", "station_name": "柳芳", "status": "建设中" }, "geometry": { "type": "Point", "coordinates": [ 116.426505885082719, 39.956771238090418 ] } },
{ "type": "Feature", "properties": { "station_num": "3", "line_name": "地铁13B号线(东直门--马连洼)", "station_name": "光熙门", "status": "建设中" }, "geometry": { "type": "Point", "coordinates": [ 116.425535898920216, 39.966949559341977 ] } },
{ "type": "Feature", "properties": { "station_num": "4", "line_name": "地铁13B号线(东直门--马连洼)", "station_name": "芍药居", "status": "建设中" }, "geometry": { "type": "Point", "coordinates": [ 116.429695321026273, 39.976253948321123 ] } },
{ "type": "Feature", "properties": { "station_num": "5", "line_name": "地铁13B号线(东直门--马连洼)", "station_name": "望京西", "status": "建设中" }, "geometry": { "type": "Point", "coordinates": [ 116.441163661789204, 39.993720753695321 ] } },
{ "type": "Feature", "properties": { "station_num": "6", "line_name": "地铁13B号线(东直门--马连洼)", "station_name": "北苑", "status": "建设中" }, "geometry": { "type": "Point", "coordinates": [ 116.428288316884263, 40.041609964557544 ] } },
{ "type": "Feature", "properties": { "station_num": "7", "line_name": "地铁13B号线(东直门--马连洼)", "station_name": "立水桥", "status": "建设中" }, "geometry": { "type": "Point", "coordinates": [ 116.404921469367821, 40.051427302653742 ] } },
{ "type": "Feature", "properties": { "station_num": "8", "line_name": "地铁13B号线(东直门--马连洼)", "station_name": "东小口", "status": "建设中" }, "geometry": { "type": "Point", "coordinates": [ 116.379104849973345, 40.062286308412055 ] } },
{ "type": "Feature", "properties": { "station_num": "9", "line_name": "地铁13B号线(东直门--马连洼)", "station_name": "霍营", "status": "建设中" }, "geometry": { "type": "Point", "coordinates": [ 116.354575228596275, 40.06918985946799 ] } },
{ "type": "Feature", "properties": { "station_num": "10", "line_name": "地铁13B号线(东直门--马连洼)", "station_name": "回龙观", "status": "建设中" }, "geometry": { "type": "Point", "coordinates": [ 116.329942925518708, 40.069465752577017 ] } },
{ "type": "Feature", "properties": { "station_num": "11", "line_name": "地铁13B号线(东直门--马连洼)", "station_name": "龙泽", "status": "建设中" }, "geometry": { "type": "Point", "coordinates": [ 116.313294097035765, 40.069579629111409 ] } },
{ "type": "Feature", "properties": { "station_num": "12", "line_name": "地铁13B号线(东直门--马连洼)", "station_name": "龙泽西", "status": "建设中" }, "geometry": { "type": "Point", "coordinates": [ 116.303359587606906, 40.071425873341852 ] } },
{ "type": "Feature", "properties": { "station_num": "13", "line_name": "地铁13B号线(东直门--马连洼)", "station_name": "东北旺", "status": "建设中" }, "geometry": { "type": "Point", "coordinates": [ 116.288954830085828, 40.051810008775341 ] } },
{ "type": "Feature", "properties": { "station_num": "14", "line_name": "地铁13B号线(东直门--马连洼)", "station_name": "上地软件园", "status": "建设中" }, "geometry": { "type": "Point", "coordinates": [ 116.280764927976918, 40.042707055501602 ] } },
{ "type": "Feature", "properties": { "station_num": "15", "line_name": "地铁13B号线(东直门--马连洼)", "station_name": "马连洼", "status": "建设中" }, "geometry": { "type": "Point", "coordinates": [ 116.268227092102336, 40.03148055455943 ] } },
{ "type": "Feature", "properties": { "station_num": "1", "line_name": "地铁14号线(张郭庄--善各庄)", "station_name": "张郭庄", "status": "运营中" }, "geometry": { "type": "Point", "coordinates": [ 116.181064795478733, 39.856822633686804 ] } },
{ "type": "Feature", "properties": { "station_num": "2", "line_name": "地铁14号线(张郭庄--善各庄)", "station_name": "园博园", "status": "运营中" }, "geometry": { "type": "Point", "coordinates": [ 116.195551182856633, 39.860074644674398 ] } },
{ "type": "Feature", "properties": { "station_num": "3", "line_name": "地铁14号线(张郭庄--善各庄)", "station_name": "大瓦窑", "status": "运营中" }, "geometry": { "type": "Point", "coordinates": [ 116.234451610248655, 39.858255179186763 ] } },
{ "type": "Feature", "properties": { "station_num": "4", "line_name": "地铁14号线(张郭庄--善各庄)", "station_name": "郭庄子", "status": "运营中" }, "geometry": { "type": "Point", "coordinates": [ 116.247044487157808, 39.86362713554319 ] } },
{ "type": "Feature", "properties": { "station_num": "5", "line_name": "地铁14号线(张郭庄--善各庄)", "station_name": "大井", "status": "运营中" }, "geometry": { "type": "Point", "coordinates": [ 116.270027277759411, 39.863999178574481 ] } },
{ "type": "Feature", "properties": { "station_num": "6", "line_name": "地铁14号线(张郭庄--善各庄)", "station_name": "七里庄", "status": "运营中" }, "geometry": { "type": "Point", "coordinates": [ 116.287792227334577, 39.86485311410943 ] } },
{ "type": "Feature", "properties": { "station_num": "7", "line_name": "地铁14号线(张郭庄--善各庄)", "station_name": "西局", "status": "运营中" }, "geometry": { "type": "Point", "coordinates": [ 116.298029372439444, 39.865410708700175 ] } },
{ "type": "Feature", "properties": { "station_num": "8", "line_name": "地铁14号线(张郭庄--善各庄)", "station_name": "东管头", "status": "运营中" }, "geometry": { "type": "Point", "coordinates": [ 116.315083708071285, 39.86627358903926 ] } },
{ "type": "Feature", "properties": { "station_num": "9", "line_name": "地铁14号线(张郭庄--善各庄)", "station_name": "丽泽商务区", "status": "运营中" }, "geometry": { "type": "Point", "coordinates": [ 116.325444927866258, 39.866671680616378 ] } },
{ "type": "Feature", "properties": { "station_num": "10", "line_name": "地铁14号线(张郭庄--善各庄)", "station_name": "菜户营", "status": "运营中" }, "geometry": { "type": "Point", "coordinates": [ 116.336282408147582, 39.866290229033325 ] } },
{ "type": "Feature", "properties": { "station_num": "11", "line_name": "地铁14号线(张郭庄--善各庄)", "station_name": "西铁营", "status": "运营中" }, "geometry": { "type": "Point", "coordinates": [ 116.34976393889481, 39.859998067050604 ] } },
{ "type": "Feature", "properties": { "station_num": "12", "line_name": "地铁14号线(张郭庄--善各庄)", "station_name": "景风门", "status": "运营中" }, "geometry": { "type": "Point", "coordinates": [ 116.359825665669902, 39.861255897395722 ] } },
{ "type": "Feature", "properties": { "station_num": "13", "line_name": "地铁14号线(张郭庄--善各庄)", "station_name": "北京南站", "status": "运营中" }, "geometry": { "type": "Point", "coordinates": [ 116.372737432592544, 39.863638667472436 ] } },
{ "type": "Feature", "properties": { "station_num": "14", "line_name": "地铁14号线(张郭庄--善各庄)", "station_name": "陶然桥", "status": "运营中" }, "geometry": { "type": "Point", "coordinates": [ 116.380933342452451, 39.867393893823959 ] } },
{ "type": "Feature", "properties": { "station_num": "15", "line_name": "地铁14号线(张郭庄--善各庄)", "station_name": "永定门外", "status": "运营中" }, "geometry": { "type": "Point", "coordinates": [ 116.393014391239362, 39.866284138443085 ] } },
{ "type": "Feature", "properties": { "station_num": "16", "line_name": "地铁14号线(张郭庄--善各庄)", "station_name": "景泰", "status": "运营中" }, "geometry": { "type": "Point", "coordinates": [ 116.40479034934404, 39.863849618192674 ] } },
{ "type": "Feature", "properties": { "station_num": "17", "line_name": "地铁14号线(张郭庄--善各庄)", "station_name": "蒲黄榆", "status": "运营中" }, "geometry": { "type": "Point", "coordinates": [ 116.416862133410376, 39.864191417258851 ] } },
{ "type": "Feature", "properties": { "station_num": "18", "line_name": "地铁14号线(张郭庄--善各庄)", "station_name": "方庄", "status": "运营中" }, "geometry": { "type": "Point", "coordinates": [ 116.434048413800085, 39.864493564520565 ] } },
{ "type": "Feature", "properties": { "station_num": "19", "line_name": "地铁14号线(张郭庄--善各庄)", "station_name": "十里河", "status": "运营中" }, "geometry": { "type": "Point", "coordinates": [ 116.45195353257472, 39.864800070762762 ] } },
{ "type": "Feature", "properties": { "station_num": "20", "line_name": "地铁14号线(张郭庄--善各庄)", "station_name": "北工大西门", "status": "运营中" }, "geometry": { "type": "Point", "coordinates": [ 116.471194628236503, 39.874007737290611 ] } },
{ "type": "Feature", "properties": { "station_num": "21", "line_name": "地铁14号线(张郭庄--善各庄)", "station_name": "平乐园", "status": "运营中" }, "geometry": { "type": "Point", "coordinates": [ 116.471218467577856, 39.883988312415603 ] } },
{ "type": "Feature", "properties": { "station_num": "22", "line_name": "地铁14号线(张郭庄--善各庄)", "station_name": "九龙山", "status": "运营中" }, "geometry": { "type": "Point", "coordinates": [ 116.4714031111601, 39.892108443646173 ] } },
{ "type": "Feature", "properties": { "station_num": "23", "line_name": "地铁14号线(张郭庄--善各庄)", "station_name": "大望路", "status": "运营中" }, "geometry": { "type": "Point", "coordinates": [ 116.471837642408104, 39.908272934186485 ] } },
{ "type": "Feature", "properties": { "station_num": "24", "line_name": "地铁14号线(张郭庄--善各庄)", "station_name": "红庙", "status": "运营中" }, "geometry": { "type": "Point", "coordinates": [ 116.471974375706466, 39.914319058316515 ] } },
{ "type": "Feature", "properties": { "station_num": "25", "line_name": "地铁14号线(张郭庄--善各庄)", "station_name": "金台路", "status": "运营中" }, "geometry": { "type": "Point", "coordinates": [ 116.472024561638122, 39.922269868234103 ] } },
{ "type": "Feature", "properties": { "station_num": "26", "line_name": "地铁14号线(张郭庄--善各庄)", "station_name": "朝阳公园", "status": "运营中" }, "geometry": { "type": "Point", "coordinates": [ 116.472199947262041, 39.932205955081898 ] } },
{ "type": "Feature", "properties": { "station_num": "27", "line_name": "地铁14号线(张郭庄--善各庄)", "station_name": "枣营", "status": "运营中" }, "geometry": { "type": "Point", "coordinates": [ 116.468842718797447, 39.942836264483603 ] } },
{ "type": "Feature", "properties": { "station_num": "28", "line_name": "地铁14号线(张郭庄--善各庄)", "station_name": "东风北桥", "status": "运营中" }, "geometry": { "type": "Point", "coordinates": [ 116.479852785610603, 39.957109788962271 ] } },
{ "type": "Feature", "properties": { "station_num": "29", "line_name": "地铁14号线(张郭庄--善各庄)", "station_name": "将台", "status": "运营中" }, "geometry": { "type": "Point", "coordinates": [ 116.484161317074282, 39.96977289169434 ] } },
{ "type": "Feature", "properties": { "station_num": "30", "line_name": "地铁14号线(张郭庄--善各庄)", "station_name": "高家园", "status": "运营中" }, "geometry": { "type": "Point", "coordinates": [ 116.482483830494601, 39.979313583979391 ] } },
{ "type": "Feature", "properties": { "station_num": "31", "line_name": "地铁14号线(张郭庄--善各庄)", "station_name": "望京南", "status": "运营中" }, "geometry": { "type": "Point", "coordinates": [ 116.475795553629354, 39.983392073542021 ] } },
{ "type": "Feature", "properties": { "station_num": "32", "line_name": "地铁14号线(张郭庄--善各庄)", "station_name": "阜通", "status": "运营中" }, "geometry": { "type": "Point", "coordinates": [ 116.465421886733154, 39.990528155001257 ] } },
{ "type": "Feature", "properties": { "station_num": "33", "line_name": "地铁14号线(张郭庄--善各庄)", "station_name": "望京", "status": "运营中" }, "geometry": { "type": "Point", "coordinates": [ 116.462078729006535, 39.99756010927095 ] } },
{ "type": "Feature", "properties": { "station_num": "34", "line_name": "地铁14号线(张郭庄--善各庄)", "station_name": "东湖渠", "status": "运营中" }, "geometry": { "type": "Point", "coordinates": [ 116.461276601109688, 40.009247542065779 ] } },
{ "type": "Feature", "properties": { "station_num": "35", "line_name": "地铁14号线(张郭庄--善各庄)", "station_name": "来广营", "status": "运营中" }, "geometry": { "type": "Point", "coordinates": [ 116.46085797962651, 40.019110024667299 ] } },
{ "type": "Feature", "properties": { "station_num": "36", "line_name": "地铁14号线(张郭庄--善各庄)", "station_name": "善各庄", "status": "运营中" }, "geometry": { "type": "Point", "coordinates": [ 116.472091825301476, 40.025869763283723 ] } },
{ "type": "Feature", "properties": { "station_num": "1", "line_name": "地铁14号线(善各庄--张郭庄)", "station_name": "善各庄", "status": "运营中" }, "geometry": { "type": "Point", "coordinates": [ 116.472091825301476, 40.025869763283723 ] } },
{ "type": "Feature", "properties": { "station_num": "2", "line_name": "地铁14号线(善各庄--张郭庄)", "station_name": "来广营", "status": "运营中" }, "geometry": { "type": "Point", "coordinates": [ 116.46085797962651, 40.019110024667299 ] } },
{ "type": "Feature", "properties": { "station_num": "3", "line_name": "地铁14号线(善各庄--张郭庄)", "station_name": "东湖渠", "status": "运营中" }, "geometry": { "type": "Point", "coordinates": [ 116.461276601109688, 40.009247542065779 ] } },
{ "type": "Feature", "properties": { "station_num": "4", "line_name": "地铁14号线(善各庄--张郭庄)", "station_name": "望京", "status": "运营中" }, "geometry": { "type": "Point", "coordinates": [ 116.462078729006535, 39.99756010927095 ] } },
{ "type": "Feature", "properties": { "station_num": "5", "line_name": "地铁14号线(善各庄--张郭庄)", "station_name": "阜通", "status": "运营中" }, "geometry": { "type": "Point", "coordinates": [ 116.465421886733154, 39.990528155001257 ] } },
{ "type": "Feature", "properties": { "station_num": "6", "line_name": "地铁14号线(善各庄--张郭庄)", "station_name": "望京南", "status": "运营中" }, "geometry": { "type": "Point", "coordinates": [ 116.475795553629354, 39.983392073542021 ] } },
{ "type": "Feature", "properties": { "station_num": "7", "line_name": "地铁14号线(善各庄--张郭庄)", "station_name": "高家园", "status": "运营中" }, "geometry": { "type": "Point", "coordinates": [ 116.482483830494601, 39.979313583979391 ] } },
{ "type": "Feature", "properties": { "station_num": "8", "line_name": "地铁14号线(善各庄--张郭庄)", "station_name": "将台", "status": "运营中" }, "geometry": { "type": "Point", "coordinates": [ 116.484161317074282, 39.96977289169434 ] } },
{ "type": "Feature", "properties": { "station_num": "9", "line_name": "地铁14号线(善各庄--张郭庄)", "station_name": "东风北桥", "status": "运营中" }, "geometry": { "type": "Point", "coordinates": [ 116.479852785610603, 39.957109788962271 ] } },
{ "type": "Feature", "properties": { "station_num": "10", "line_name": "地铁14号线(善各庄--张郭庄)", "station_name": "枣营", "status": "运营中" }, "geometry": { "type": "Point", "coordinates": [ 116.468842718797447, 39.942836264483603 ] } },
{ "type": "Feature", "properties": { "station_num": "11", "line_name": "地铁14号线(善各庄--张郭庄)", "station_name": "朝阳公园", "status": "运营中" }, "geometry": { "type": "Point", "coordinates": [ 116.472199947262041, 39.932205955081898 ] } },
{ "type": "Feature", "properties": { "station_num": "12", "line_name": "地铁14号线(善各庄--张郭庄)", "station_name": "金台路", "status": "运营中" }, "geometry": { "type": "Point", "coordinates": [ 116.472024561638122, 39.922269868234103 ] } },
{ "type": "Feature", "properties": { "station_num": "13", "line_name": "地铁14号线(善各庄--张郭庄)", "station_name": "红庙", "status": "运营中" }, "geometry": { "type": "Point", "coordinates": [ 116.471974375706466, 39.914319058316515 ] } },
{ "type": "Feature", "properties": { "station_num": "14", "line_name": "地铁14号线(善各庄--张郭庄)", "station_name": "大望路", "status": "运营中" }, "geometry": { "type": "Point", "coordinates": [ 116.471837642408104, 39.908272934186485 ] } },
{ "type": "Feature", "properties": { "station_num": "15", "line_name": "地铁14号线(善各庄--张郭庄)", "station_name": "九龙山", "status": "运营中" }, "geometry": { "type": "Point", "coordinates": [ 116.4714031111601, 39.892108443646173 ] } },
{ "type": "Feature", "properties": { "station_num": "16", "line_name": "地铁14号线(善各庄--张郭庄)", "station_name": "平乐园", "status": "运营中" }, "geometry": { "type": "Point", "coordinates": [ 116.471218467577856, 39.883988312415603 ] } },
{ "type": "Feature", "properties": { "station_num": "17", "line_name": "地铁14号线(善各庄--张郭庄)", "station_name": "北工大西门", "status": "运营中" }, "geometry": { "type": "Point", "coordinates": [ 116.471194628236503, 39.874007737290611 ] } },
{ "type": "Feature", "properties": { "station_num": "18", "line_name": "地铁14号线(善各庄--张郭庄)", "station_name": "十里河", "status": "运营中" }, "geometry": { "type": "Point", "coordinates": [ 116.45195353257472, 39.864800070762762 ] } },
{ "type": "Feature", "properties": { "station_num": "19", "line_name": "地铁14号线(善各庄--张郭庄)", "station_name": "方庄", "status": "运营中" }, "geometry": { "type": "Point", "coordinates": [ 116.434048413800085, 39.864493564520565 ] } },
{ "type": "Feature", "properties": { "station_num": "20", "line_name": "地铁14号线(善各庄--张郭庄)", "station_name": "蒲黄榆", "status": "运营中" }, "geometry": { "type": "Point", "coordinates": [ 116.416862133410376, 39.864191417258851 ] } },
{ "type": "Feature", "properties": { "station_num": "21", "line_name": "地铁14号线(善各庄--张郭庄)", "station_name": "景泰", "status": "运营中" }, "geometry": { "type": "Point", "coordinates": [ 116.40479034934404, 39.863849618192674 ] } },
{ "type": "Feature", "properties": { "station_num": "22", "line_name": "地铁14号线(善各庄--张郭庄)", "station_name": "永定门外", "status": "运营中" }, "geometry": { "type": "Point", "coordinates": [ 116.393014391239362, 39.866284138443085 ] } },
{ "type": "Feature", "properties": { "station_num": "23", "line_name": "地铁14号线(善各庄--张郭庄)", "station_name": "陶然桥", "status": "运营中" }, "geometry": { "type": "Point", "coordinates": [ 116.380933342452451, 39.867393893823959 ] } },
{ "type": "Feature", "properties": { "station_num": "24", "line_name": "地铁14号线(善各庄--张郭庄)", "station_name": "北京南站", "status": "运营中" }, "geometry": { "type": "Point", "coordinates": [ 116.372737432592544, 39.863638667472436 ] } },
{ "type": "Feature", "properties": { "station_num": "25", "line_name": "地铁14号线(善各庄--张郭庄)", "station_name": "景风门", "status": "运营中" }, "geometry": { "type": "Point", "coordinates": [ 116.359825665669902, 39.861255897395722 ] } },
{ "type": "Feature", "properties": { "station_num": "26", "line_name": "地铁14号线(善各庄--张郭庄)", "station_name": "西铁营", "status": "运营中" }, "geometry": { "type": "Point", "coordinates": [ 116.34976393889481, 39.859998067050604 ] } },
{ "type": "Feature", "properties": { "station_num": "27", "line_name": "地铁14号线(善各庄--张郭庄)", "station_name": "菜户营", "status": "运营中" }, "geometry": { "type": "Point", "coordinates": [ 116.336282408147582, 39.866290229033325 ] } },
{ "type": "Feature", "properties": { "station_num": "28", "line_name": "地铁14号线(善各庄--张郭庄)", "station_name": "丽泽商务区", "status": "运营中" }, "geometry": { "type": "Point", "coordinates": [ 116.325444927866258, 39.866671680616378 ] } },
{ "type": "Feature", "properties": { "station_num": "29", "line_name": "地铁14号线(善各庄--张郭庄)", "station_name": "东管头", "status": "运营中" }, "geometry": { "type": "Point", "coordinates": [ 116.315083708071285, 39.86627358903926 ] } },
{ "type": "Feature", "properties": { "station_num": "30", "line_name": "地铁14号线(善各庄--张郭庄)", "station_name": "西局", "status": "运营中" }, "geometry": { "type": "Point", "coordinates": [ 116.298029372439444, 39.865410708700175 ] } },
{ "type": "Feature", "properties": { "station_num": "31", "line_name": "地铁14号线(善各庄--张郭庄)", "station_name": "七里庄", "status": "运营中" }, "geometry": { "type": "Point", "coordinates": [ 116.287792227334577, 39.86485311410943 ] } },
{ "type": "Feature", "properties": { "station_num": "32", "line_name": "地铁14号线(善各庄--张郭庄)", "station_name": "大井", "status": "运营中" }, "geometry": { "type": "Point", "coordinates": [ 116.270027277759411, 39.863999178574481 ] } },
{ "type": "Feature", "properties": { "station_num": "33", "line_name": "地铁14号线(善各庄--张郭庄)", "station_name": "郭庄子", "status": "运营中" }, "geometry": { "type": "Point", "coordinates": [ 116.247044487157808, 39.86362713554319 ] } },
{ "type": "Feature", "properties": { "station_num": "34", "line_name": "地铁14号线(善各庄--张郭庄)", "station_name": "大瓦窑", "status": "运营中" }, "geometry": { "type": "Point", "coordinates": [ 116.234451610248655, 39.858255179186763 ] } },
{ "type": "Feature", "properties": { "station_num": "35", "line_name": "地铁14号线(善各庄--张郭庄)", "station_name": "园博园", "status": "运营中" }, "geometry": { "type": "Point", "coordinates": [ 116.195551182856633, 39.860074644674398 ] } },
{ "type": "Feature", "properties": { "station_num": "36", "line_name": "地铁14号线(善各庄--张郭庄)", "station_name": "张郭庄", "status": "运营中" }, "geometry": { "type": "Point", "coordinates": [ 116.181064795478733, 39.856822633686804 ] } },
{ "type": "Feature", "properties": { "station_num": "1", "line_name": "地铁15号线(俸伯--清华东路西口)", "station_name": "俸伯", "status": "运营中" }, "geometry": { "type": "Point", "coordinates": [ 116.678740155849852, 40.13140520799049 ] } },
{ "type": "Feature", "properties": { "station_num": "2", "line_name": "地铁15号线(俸伯--清华东路西口)", "station_name": "顺义", "status": "运营中" }, "geometry": { "type": "Point", "coordinates": [ 116.651109639717447, 40.12887893891736 ] } },
{ "type": "Feature", "properties": { "station_num": "3", "line_name": "地铁15号线(俸伯--清华东路西口)", "station_name": "石门", "status": "运营中" }, "geometry": { "type": "Point", "coordinates": [ 116.635244173599546, 40.128714125751728 ] } },
{ "type": "Feature", "properties": { "station_num": "4", "line_name": "地铁15号线(俸伯--清华东路西口)", "station_name": "南法信", "status": "运营中" }, "geometry": { "type": "Point", "coordinates": [ 116.603715717696673, 40.127424293356867 ] } },
{ "type": "Feature", "properties": { "station_num": "5", "line_name": "地铁15号线(俸伯--清华东路西口)", "station_name": "后沙峪", "status": "运营中" }, "geometry": { "type": "Point", "coordinates": [ 116.558375751390074, 40.113053101700089 ] } },
{ "type": "Feature", "properties": { "station_num": "6", "line_name": "地铁15号线(俸伯--清华东路西口)", "station_name": "花梨坎", "status": "运营中" }, "geometry": { "type": "Point", "coordinates": [ 116.5517487711667, 40.08335374450072 ] } },
{ "type": "Feature", "properties": { "station_num": "7", "line_name": "地铁15号线(俸伯--清华东路西口)", "station_name": "国展", "status": "运营中" }, "geometry": { "type": "Point", "coordinates": [ 116.549279235310451, 40.068944287963092 ] } },
{ "type": "Feature", "properties": { "station_num": "8", "line_name": "地铁15号线(俸伯--清华东路西口)", "station_name": "孙河", "status": "运营中" }, "geometry": { "type": "Point", "coordinates": [ 116.528800246404145, 40.043983967406547 ] } },
{ "type": "Feature", "properties": { "station_num": "9", "line_name": "地铁15号线(俸伯--清华东路西口)", "station_name": "马泉营", "status": "运营中" }, "geometry": { "type": "Point", "coordinates": [ 116.497470962446343, 40.032504735469885 ] } },
{ "type": "Feature", "properties": { "station_num": "10", "line_name": "地铁15号线(俸伯--清华东路西口)", "station_name": "崔各庄", "status": "运营中" }, "geometry": { "type": "Point", "coordinates": [ 116.48692034942772, 40.020953867317345 ] } },
{ "type": "Feature", "properties": { "station_num": "11", "line_name": "地铁15号线(俸伯--清华东路西口)", "station_name": "望京东", "status": "运营中" }, "geometry": { "type": "Point", "coordinates": [ 116.480964329410014, 40.001912204621604 ] } },
{ "type": "Feature", "properties": { "station_num": "12", "line_name": "地铁15号线(俸伯--清华东路西口)", "station_name": "望京", "status": "运营中" }, "geometry": { "type": "Point", "coordinates": [ 116.463278782564998, 39.997208234859571 ] } },
{ "type": "Feature", "properties": { "station_num": "13", "line_name": "地铁15号线(俸伯--清华东路西口)", "station_name": "望京西", "status": "运营中" }, "geometry": { "type": "Point", "coordinates": [ 116.443695074815622, 39.994365713569159 ] } },
{ "type": "Feature", "properties": { "station_num": "14", "line_name": "地铁15号线(俸伯--清华东路西口)", "station_name": "关庄", "status": "运营中" }, "geometry": { "type": "Point", "coordinates": [ 116.424716331413222, 39.99974416858079 ] } },
{ "type": "Feature", "properties": { "station_num": "15", "line_name": "地铁15号线(俸伯--清华东路西口)", "station_name": "大屯路东", "status": "运营中" }, "geometry": { "type": "Point", "coordinates": [ 116.412431676857977, 40.001724883900494 ] } },
{ "type": "Feature", "properties": { "station_num": "16", "line_name": "地铁15号线(俸伯--清华东路西口)", "station_name": "安立路", "status": "运营中" }, "geometry": { "type": "Point", "coordinates": [ 116.401590334754204, 40.00121173411933 ] } },
{ "type": "Feature", "properties": { "station_num": "17", "line_name": "地铁15号线(俸伯--清华东路西口)", "station_name": "奥林匹克公园", "status": "运营中" }, "geometry": { "type": "Point", "coordinates": [ 116.385504487814117, 40.000801650129951 ] } },
{ "type": "Feature", "properties": { "station_num": "18", "line_name": "地铁15号线(俸伯--清华东路西口)", "station_name": "北沙滩", "status": "运营中" }, "geometry": { "type": "Point", "coordinates": [ 116.362052413175249, 40.00013389434335 ] } },
{ "type": "Feature", "properties": { "station_num": "19", "line_name": "地铁15号线(俸伯--清华东路西口)", "station_name": "六道口", "status": "运营中" }, "geometry": { "type": "Point", "coordinates": [ 116.346469759049214, 39.999597441685118 ] } },
{ "type": "Feature", "properties": { "station_num": "20", "line_name": "地铁15号线(俸伯--清华东路西口)", "station_name": "清华东路西口", "status": "运营中" }, "geometry": { "type": "Point", "coordinates": [ 116.333358088736929, 39.999335937003636 ] } },
{ "type": "Feature", "properties": { "station_num": "1", "line_name": "地铁15号线(清华东路西口--俸伯)", "station_name": "清华东路西口", "status": "运营中" }, "geometry": { "type": "Point", "coordinates": [ 116.333358088736929, 39.999335937003636 ] } },
{ "type": "Feature", "properties": { "station_num": "2", "line_name": "地铁15号线(清华东路西口--俸伯)", "station_name": "六道口", "status": "运营中" }, "geometry": { "type": "Point", "coordinates": [ 116.346469759049214, 39.999597441685118 ] } },
{ "type": "Feature", "properties": { "station_num": "3", "line_name": "地铁15号线(清华东路西口--俸伯)", "station_name": "北沙滩", "status": "运营中" }, "geometry": { "type": "Point", "coordinates": [ 116.362052413175249, 40.00013389434335 ] } },
{ "type": "Feature", "properties": { "station_num": "4", "line_name": "地铁15号线(清华东路西口--俸伯)", "station_name": "奥林匹克公园", "status": "运营中" }, "geometry": { "type": "Point", "coordinates": [ 116.385504487814117, 40.000801650129951 ] } },
{ "type": "Feature", "properties": { "station_num": "5", "line_name": "地铁15号线(清华东路西口--俸伯)", "station_name": "安立路", "status": "运营中" }, "geometry": { "type": "Point", "coordinates": [ 116.401590334754204, 40.00121173411933 ] } },
{ "type": "Feature", "properties": { "station_num": "6", "line_name": "地铁15号线(清华东路西口--俸伯)", "station_name": "大屯路东", "status": "运营中" }, "geometry": { "type": "Point", "coordinates": [ 116.412431676857977, 40.001724883900494 ] } },
{ "type": "Feature", "properties": { "station_num": "7", "line_name": "地铁15号线(清华东路西口--俸伯)", "station_name": "关庄", "status": "运营中" }, "geometry": { "type": "Point", "coordinates": [ 116.424716331413222, 39.99974416858079 ] } },
{ "type": "Feature", "properties": { "station_num": "8", "line_name": "地铁15号线(清华东路西口--俸伯)", "station_name": "望京西", "status": "运营中" }, "geometry": { "type": "Point", "coordinates": [ 116.443695074815622, 39.994365713569159 ] } },
{ "type": "Feature", "properties": { "station_num": "9", "line_name": "地铁15号线(清华东路西口--俸伯)", "station_name": "望京", "status": "运营中" }, "geometry": { "type": "Point", "coordinates": [ 116.463278782564998, 39.997208234859571 ] } },
{ "type": "Feature", "properties": { "station_num": "10", "line_name": "地铁15号线(清华东路西口--俸伯)", "station_name": "望京东", "status": "运营中" }, "geometry": { "type": "Point", "coordinates": [ 116.480964329410014, 40.001912204621604 ] } },
{ "type": "Feature", "properties": { "station_num": "11", "line_name": "地铁15号线(清华东路西口--俸伯)", "station_name": "崔各庄", "status": "运营中" }, "geometry": { "type": "Point", "coordinates": [ 116.48692034942772, 40.020953867317345 ] } },
{ "type": "Feature", "properties": { "station_num": "12", "line_name": "地铁15号线(清华东路西口--俸伯)", "station_name": "马泉营", "status": "运营中" }, "geometry": { "type": "Point", "coordinates": [ 116.497470962446343, 40.032504735469885 ] } },
{ "type": "Feature", "properties": { "station_num": "13", "line_name": "地铁15号线(清华东路西口--俸伯)", "station_name": "孙河", "status": "运营中" }, "geometry": { "type": "Point", "coordinates": [ 116.528800246404145, 40.043983967406547 ] } },
{ "type": "Feature", "properties": { "station_num": "14", "line_name": "地铁15号线(清华东路西口--俸伯)", "station_name": "国展", "status": "运营中" }, "geometry": { "type": "Point", "coordinates": [ 116.549279235310451, 40.068944287963092 ] } },
{ "type": "Feature", "properties": { "station_num": "15", "line_name": "地铁15号线(清华东路西口--俸伯)", "station_name": "花梨坎", "status": "运营中" }, "geometry": { "type": "Point", "coordinates": [ 116.5517487711667, 40.08335374450072 ] } },
{ "type": "Feature", "properties": { "station_num": "16", "line_name": "地铁15号线(清华东路西口--俸伯)", "station_name": "后沙峪", "status": "运营中" }, "geometry": { "type": "Point", "coordinates": [ 116.558375751390074, 40.113053101700089 ] } },
{ "type": "Feature", "properties": { "station_num": "17", "line_name": "地铁15号线(清华东路西口--俸伯)", "station_name": "南法信", "status": "运营中" }, "geometry": { "type": "Point", "coordinates": [ 116.603715717696673, 40.127424293356867 ] } },
{ "type": "Feature", "properties": { "station_num": "18", "line_name": "地铁15号线(清华东路西口--俸伯)", "station_name": "石门", "status": "运营中" }, "geometry": { "type": "Point", "coordinates": [ 116.635244173599546, 40.128714125751728 ] } },
{ "type": "Feature", "properties": { "station_num": "19", "line_name": "地铁15号线(清华东路西口--俸伯)", "station_name": "顺义", "status": "运营中" }, "geometry": { "type": "Point", "coordinates": [ 116.651109639717447, 40.12887893891736 ] } },
{ "type": "Feature", "properties": { "station_num": "20", "line_name": "地铁15号线(清华东路西口--俸伯)", "station_name": "俸伯", "status": "运营中" }, "geometry": { "type": "Point", "coordinates": [ 116.678740155849852, 40.13140520799049 ] } },
{ "type": "Feature", "properties": { "station_num": "1", "line_name": "地铁16号线(宛平城--北安河)", "station_name": "宛平城", "status": "运营中" }, "geometry": { "type": "Point", "coordinates": [ 116.223532758454823, 39.847835930419798 ] } },
{ "type": "Feature", "properties": { "station_num": "2", "line_name": "地铁16号线(宛平城--北安河)", "station_name": "洪泰庄", "status": "运营中" }, "geometry": { "type": "Point", "coordinates": [ 116.243298692138978, 39.847325310970909 ] } },
{ "type": "Feature", "properties": { "station_num": "3", "line_name": "地铁16号线(宛平城--北安河)", "station_name": "榆树庄", "status": "运营中" }, "geometry": { "type": "Point", "coordinates": [ 116.252943573236251, 39.837528180933866 ] } },
{ "type": "Feature", "properties": { "station_num": "4", "line_name": "地铁16号线(宛平城--北安河)", "station_name": "看丹", "status": "运营中" }, "geometry": { "type": "Point", "coordinates": [ 116.266492238046908, 39.83368818174155 ] } },
{ "type": "Feature", "properties": { "station_num": "5", "line_name": "地铁16号线(宛平城--北安河)", "station_name": "富丰桥", "status": "运营中" }, "geometry": { "type": "Point", "coordinates": [ 116.280979573812388, 39.834990385866313 ] } },
{ "type": "Feature", "properties": { "station_num": "6", "line_name": "地铁16号线(宛平城--北安河)", "station_name": "丰台南路", "status": "运营中" }, "geometry": { "type": "Point", "coordinates": [ 116.290535661764395, 39.839500417681485 ] } },
{ "type": "Feature", "properties": { "station_num": "7", "line_name": "地铁16号线(宛平城--北安河)", "station_name": "丰台站", "status": "运营中" }, "geometry": { "type": "Point", "coordinates": [ 116.296174963271497, 39.849655717992796 ] } },
{ "type": "Feature", "properties": { "station_num": "8", "line_name": "地铁16号线(宛平城--北安河)", "station_name": "东管头南", "status": "运营中" }, "geometry": { "type": "Point", "coordinates": [ 116.316840383685175, 39.853023967762134 ] } },
{ "type": "Feature", "properties": { "station_num": "9", "line_name": "地铁16号线(宛平城--北安河)", "station_name": "丽泽商务区", "status": "运营中" }, "geometry": { "type": "Point", "coordinates": [ 116.325444927866258, 39.866671680616378 ] } },
{ "type": "Feature", "properties": { "station_num": "10", "line_name": "地铁16号线(宛平城--北安河)", "station_name": "红莲南路", "status": "运营中" }, "geometry": { "type": "Point", "coordinates": [ 116.330518114144354, 39.876206502604333 ] } },
{ "type": "Feature", "properties": { "station_num": "11", "line_name": "地铁16号线(宛平城--北安河)", "station_name": "达官营", "status": "运营中" }, "geometry": { "type": "Point", "coordinates": [ 116.328674614421232, 39.889712350297714 ] } },
{ "type": "Feature", "properties": { "station_num": "12", "line_name": "地铁16号线(宛平城--北安河)", "station_name": "木樨地", "status": "运营中" }, "geometry": { "type": "Point", "coordinates": [ 116.327831233879721, 39.908014133961871 ] } },
{ "type": "Feature", "properties": { "station_num": "13", "line_name": "地铁16号线(宛平城--北安河)", "station_name": "玉渊潭东门", "status": "运营中" }, "geometry": { "type": "Point", "coordinates": [ 116.32838139038985, 39.912630884686919 ] } },
{ "type": "Feature", "properties": { "station_num": "14", "line_name": "地铁16号线(宛平城--北安河)", "station_name": "甘家口", "status": "运营中" }, "geometry": { "type": "Point", "coordinates": [ 116.328395194317693, 39.921843470550968 ] } },
{ "type": "Feature", "properties": { "station_num": "15", "line_name": "地铁16号线(宛平城--北安河)", "station_name": "二里沟", "status": "运营中" }, "geometry": { "type": "Point", "coordinates": [ 116.32755096036081, 39.931086703697304 ] } },
{ "type": "Feature", "properties": { "station_num": "16", "line_name": "地铁16号线(宛平城--北安河)", "station_name": "国家图书馆", "status": "运营中" }, "geometry": { "type": "Point", "coordinates": [ 116.317483895622672, 39.940558658051657 ] } },
{ "type": "Feature", "properties": { "station_num": "17", "line_name": "地铁16号线(宛平城--北安河)", "station_name": "万寿寺", "status": "运营中" }, "geometry": { "type": "Point", "coordinates": [ 116.303805395878868, 39.946493968524656 ] } },
{ "type": "Feature", "properties": { "station_num": "18", "line_name": "地铁16号线(宛平城--北安河)", "station_name": "苏州桥", "status": "运营中" }, "geometry": { "type": "Point", "coordinates": [ 116.301734888688529, 39.961038079181925 ] } },
{ "type": "Feature", "properties": { "station_num": "19", "line_name": "地铁16号线(宛平城--北安河)", "station_name": "苏州街", "status": "运营中" }, "geometry": { "type": "Point", "coordinates": [ 116.300237282065495, 39.974368173154211 ] } },
{ "type": "Feature", "properties": { "station_num": "20", "line_name": "地铁16号线(宛平城--北安河)", "station_name": "万泉河桥", "status": "运营中" }, "geometry": { "type": "Point", "coordinates": [ 116.292946232977556, 39.98398499786731 ] } },
{ "type": "Feature", "properties": { "station_num": "21", "line_name": "地铁16号线(宛平城--北安河)", "station_name": "西苑", "status": "运营中" }, "geometry": { "type": "Point", "coordinates": [ 116.286022449164463, 39.998373951654379 ] } },
{ "type": "Feature", "properties": { "station_num": "22", "line_name": "地铁16号线(宛平城--北安河)", "station_name": "农大南路", "status": "运营中" }, "geometry": { "type": "Point", "coordinates": [ 116.276255821865377, 40.02011175357832 ] } },
{ "type": "Feature", "properties": { "station_num": "23", "line_name": "地铁16号线(宛平城--北安河)", "station_name": "马连洼", "status": "运营中" }, "geometry": { "type": "Point", "coordinates": [ 116.266468625635113, 40.031406104584796 ] } },
{ "type": "Feature", "properties": { "station_num": "24", "line_name": "地铁16号线(宛平城--北安河)", "station_name": "西北旺", "status": "运营中" }, "geometry": { "type": "Point", "coordinates": [ 116.251876604890839, 40.047479868402355 ] } },
{ "type": "Feature", "properties": { "station_num": "25", "line_name": "地铁16号线(宛平城--北安河)", "station_name": "永丰南", "status": "运营中" }, "geometry": { "type": "Point", "coordinates": [ 116.242104274972775, 40.064352242027084 ] } },
{ "type": "Feature", "properties": { "station_num": "26", "line_name": "地铁16号线(宛平城--北安河)", "station_name": "永丰", "status": "运营中" }, "geometry": { "type": "Point", "coordinates": [ 116.232424533601275, 40.070642632272701 ] } },
{ "type": "Feature", "properties": { "station_num": "27", "line_name": "地铁16号线(宛平城--北安河)", "station_name": "屯佃", "status": "运营中" }, "geometry": { "type": "Point", "coordinates": [ 116.209762574585426, 40.067210590654788 ] } },
{ "type": "Feature", "properties": { "station_num": "28", "line_name": "地铁16号线(宛平城--北安河)", "station_name": "稻香湖路", "status": "运营中" }, "geometry": { "type": "Point", "coordinates": [ 116.181992802333113, 40.067650644789161 ] } },
{ "type": "Feature", "properties": { "station_num": "29", "line_name": "地铁16号线(宛平城--北安河)", "station_name": "温阳路", "status": "运营中" }, "geometry": { "type": "Point", "coordinates": [ 116.155133844268462, 40.067181187320848 ] } },
{ "type": "Feature", "properties": { "station_num": "30", "line_name": "地铁16号线(宛平城--北安河)", "station_name": "北安河", "status": "运营中" }, "geometry": { "type": "Point", "coordinates": [ 116.124314510051931, 40.066639531003695 ] } },
{ "type": "Feature", "properties": { "station_num": "1", "line_name": "地铁16号线(北安河--宛平城)", "station_name": "北安河", "status": "运营中" }, "geometry": { "type": "Point", "coordinates": [ 116.124314510051931, 40.066639531003695 ] } },
{ "type": "Feature", "properties": { "station_num": "2", "line_name": "地铁16号线(北安河--宛平城)", "station_name": "温阳路", "status": "运营中" }, "geometry": { "type": "Point", "coordinates": [ 116.155133844268462, 40.067181187320848 ] } },
{ "type": "Feature", "properties": { "station_num": "3", "line_name": "地铁16号线(北安河--宛平城)", "station_name": "稻香湖路", "status": "运营中" }, "geometry": { "type": "Point", "coordinates": [ 116.181992802333113, 40.067650644789161 ] } },
{ "type": "Feature", "properties": { "station_num": "4", "line_name": "地铁16号线(北安河--宛平城)", "station_name": "屯佃", "status": "运营中" }, "geometry": { "type": "Point", "coordinates": [ 116.209762574585426, 40.067210590654788 ] } },
{ "type": "Feature", "properties": { "station_num": "5", "line_name": "地铁16号线(北安河--宛平城)", "station_name": "永丰", "status": "运营中" }, "geometry": { "type": "Point", "coordinates": [ 116.232424533601275, 40.070642632272701 ] } },
{ "type": "Feature", "properties": { "station_num": "6", "line_name": "地铁16号线(北安河--宛平城)", "station_name": "永丰南", "status": "运营中" }, "geometry": { "type": "Point", "coordinates": [ 116.242104274972775, 40.064352242027084 ] } },
{ "type": "Feature", "properties": { "station_num": "7", "line_name": "地铁16号线(北安河--宛平城)", "station_name": "西北旺", "status": "运营中" }, "geometry": { "type": "Point", "coordinates": [ 116.251876604890839, 40.047479868402355 ] } },
{ "type": "Feature", "properties": { "station_num": "8", "line_name": "地铁16号线(北安河--宛平城)", "station_name": "马连洼", "status": "运营中" }, "geometry": { "type": "Point", "coordinates": [ 116.266468625635113, 40.031406104584796 ] } },
{ "type": "Feature", "properties": { "station_num": "9", "line_name": "地铁16号线(北安河--宛平城)", "station_name": "农大南路", "status": "运营中" }, "geometry": { "type": "Point", "coordinates": [ 116.276255821865377, 40.02011175357832 ] } },
{ "type": "Feature", "properties": { "station_num": "10", "line_name": "地铁16号线(北安河--宛平城)", "station_name": "西苑", "status": "运营中" }, "geometry": { "type": "Point", "coordinates": [ 116.286022449164463, 39.998373951654379 ] } },
{ "type": "Feature", "properties": { "station_num": "11", "line_name": "地铁16号线(北安河--宛平城)", "station_name": "万泉河桥", "status": "运营中" }, "geometry": { "type": "Point", "coordinates": [ 116.292946232977556, 39.98398499786731 ] } },
{ "type": "Feature", "properties": { "station_num": "12", "line_name": "地铁16号线(北安河--宛平城)", "station_name": "苏州街", "status": "运营中" }, "geometry": { "type": "Point", "coordinates": [ 116.300237282065495, 39.974368173154211 ] } },
{ "type": "Feature", "properties": { "station_num": "13", "line_name": "地铁16号线(北安河--宛平城)", "station_name": "苏州桥", "status": "运营中" }, "geometry": { "type": "Point", "coordinates": [ 116.301734888688529, 39.961038079181925 ] } },
{ "type": "Feature", "properties": { "station_num": "14", "line_name": "地铁16号线(北安河--宛平城)", "station_name": "万寿寺", "status": "运营中" }, "geometry": { "type": "Point", "coordinates": [ 116.303805395878868, 39.946493968524656 ] } },
{ "type": "Feature", "properties": { "station_num": "15", "line_name": "地铁16号线(北安河--宛平城)", "station_name": "国家图书馆", "status": "运营中" }, "geometry": { "type": "Point", "coordinates": [ 116.317483895622672, 39.940558658051657 ] } },
{ "type": "Feature", "properties": { "station_num": "16", "line_name": "地铁16号线(北安河--宛平城)", "station_name": "二里沟", "status": "运营中" }, "geometry": { "type": "Point", "coordinates": [ 116.32755096036081, 39.931086703697304 ] } },
{ "type": "Feature", "properties": { "station_num": "17", "line_name": "地铁16号线(北安河--宛平城)", "station_name": "甘家口", "status": "运营中" },